{
  "education": [
    {
      "id": "osmp/137",
      "type": "node",
      "osm_id": 0,
      "lat": 60.4245336,
      "lon": 22.2811718,
      "tags": {
        "amenity": "school"
      }
    },
    {
      "id": "osmp/264",
      "type": "node",
      "osm_id": 0,
      "lat": 60.4606927,
      "lon": 22.3074544,
      "tags": {
        "amenity": "library",
        "name": "Nummen kirjasto"
      }
    },
    {
      "id": "osmp/268",
      "type": "node",
      "osm_id": 0,
      "lat": 60.4252061,
      "lon": 22.5175018,
      "tags": {
        "amenity": "library",
        "name": "Piikkiön kirjasto"
      }
    },
    {
      "id": "osmp/276",
      "type": "node",
      "osm_id": 0,
      "lat": 59.8239807,
      "lon": 22.9688477,
      "tags": {
        "amenity": "library",
        "name": "Hangon kaupunginkirjasto"
      }
    },
    {
      "id": "osmp/306",
      "type": "node",
      "osm_id": 0,
      "lat": 60.4682976,
      "lon": 22.0192573,
      "tags": {
        "amenity": "kindergarten"
      }
    },
    {
      "id": "osmp/307",
      "type": "node",
      "osm_id": 0,
      "lat": 60.4671516,
      "lon": 22.024265,
      "tags": {
        "amenity": "library"
      }
    },
    {
      "id": "osmp/618",
      "type": "node",
      "osm_id": 0,
      "lat": 60.3033928,
      "lon": 22.3012169,
      "tags": {
        "amenity": "library",
        "name": "Pargas stadsbibliotek"
      }
    },
    {
      "id": "osmp/633",
      "type": "node",
      "osm_id": 0,
      "lat": 60.450291,
      "lon": 22.1677414,
      "tags": {
        "amenity": "library",
        "name": "Pansion kirjasto"
      }
    },
    {
      "id": "osmp/645",
      "type": "node",
      "osm_id": 0,
      "lat": 60.4253749,
      "lon": 22.5045534,
      "tags": {
        "amenity": "kindergarten",
        "name": "Päiväkoti Pihlajanmarja"
      }
    },
    {
      "id": "osmp/767",
      "type": "node",
      "osm_id": 0,
      "lat": 60.4667671,
      "lon": 21.6983688,
      "tags": {
        "amenity": "library",
        "name": "Velkuan kirjasto"
      }
    },
    {
      "id": "osmp/768",
      "type": "node",
      "osm_id": 0,
      "lat": 60.466682,
      "lon": 21.6983481,
      "tags": {
        "amenity": "kindergarten",
        "name": "Kummelin päiväkotiosasto"
      }
    },
    {
      "id": "osmp/771",
      "type": "node",
      "osm_id": 0,
      "lat": 60.4245551,
      "lon": 22.2837741,
      "tags": {
        "amenity": "library",
        "operator": "Vaski-kirjastot",
        "name": "Ilpoisten kirjasto"
      }
    },
    {
      "id": "osmp/813",
      "type": "node",
      "osm_id": 0,
      "lat": 59.8362231,
      "lon": 22.9744737,
      "tags": {
        "amenity": "kindergarten"
      }
    },
    {
      "id": "osmp/818",
      "type": "node",
      "osm_id": 0,
      "lat": 60.374578,
      "lon": 21.9531277,
      "tags": {
        "amenity": "library",
        "operator": "Vaski-kirjastot",
        "name": "Rymättylän kirjasto"
      }
    },
    {
      "id": "osmp/859",
      "type": "node",
      "osm_id": 0,
      "lat": 60.1727803,
      "lon": 21.562861,
      "tags": {
        "amenity": "library",
        "name": "Korpo bibliotek"
      }
    },
    {
      "id": "osmp/862",
      "type": "node",
      "osm_id": 0,
      "lat": 60.1730363,
      "lon": 21.5650228,
      "tags": {
        "amenity": "kindergarten",
        "name": "Korpo daghem"
      }
    },
    {
      "id": "osmp/1094",
      "type": "node",
      "osm_id": 0,
      "lat": 60.4445907,
      "lon": 22.2383405,
      "tags": {
        "amenity": "kindergarten",
        "name": "Satuportsa"
      }
    },
    {
      "id": "osmp/1095",
      "type": "node",
      "osm_id": 0,
      "lat": 60.4525119,
      "lon": 22.2533636,
      "tags": {
        "amenity": "kindergarten",
        "name": "Mukulax"
      }
    },
    {
      "id": "osmp/1101",
      "type": "node",
      "osm_id": 0,
      "lat": 60.4566346,
      "lon": 22.2742802,
      "tags": {
        "amenity": "kindergarten"
      }
    },
    {
      "id": "osmp/1107",
      "type": "node",
      "osm_id": 0,
      "lat": 60.4479673,
      "lon": 22.2613944,
      "tags": {
        "amenity": "school",
        "name": "Turun iltalukio"
      }
    },
    {
      "id": "osmp/1110",
      "type": "node",
      "osm_id": 0,
      "lat": 60.442024,
      "lon": 22.258752,
      "tags": {
        "amenity": "kindergarten",
        "name": "Urheilupuiston päivähoitoyksikkö"
      }
    },
    {
      "id": "osmp/1115",
      "type": "node",
      "osm_id": 0,
      "lat": 60.4563582,
      "lon": 22.2754616,
      "tags": {
        "amenity": "kindergarten",
        "name": "Tuomaansillan päivähoitoyksikkö"
      }
    },
    {
      "id": "osmp/1122",
      "type": "node",
      "osm_id": 0,
      "lat": 60.4607677,
      "lon": 22.2641634,
      "tags": {
        "amenity": "kindergarten",
        "operator": "Auralan Setlementti ry",
        "name": "Auralan päiväkoti"
      }
    },
    {
      "id": "osmp/1124",
      "type": "node",
      "osm_id": 0,
      "lat": 60.4351303,
      "lon": 22.2460606,
      "tags": {
        "amenity": "kindergarten",
        "name": "Pilke Äppelbo"
      }
    },
    {
      "id": "osmp/1125",
      "type": "node",
      "osm_id": 0,
      "lat": 60.4239106,
      "lon": 22.2603278,
      "tags": {
        "amenity": "kindergarten",
        "name": "Päiväkoti Jalustinkatu 8"
      }
    },
    {
      "id": "osmp/1126",
      "type": "node",
      "osm_id": 0,
      "lat": 60.448137,
      "lon": 22.2955603,
      "tags": {
        "amenity": "school",
        "name": "Turun ammatti-instituutti"
      }
    },
    {
      "id": "osmp/1127",
      "type": "node",
      "osm_id": 0,
      "lat": 60.4469986,
      "lon": 22.2925655,
      "tags": {
        "amenity": "kindergarten",
        "name": "Avoin päiväkoti Kupittaan Touhumaa"
      }
    },
    {
      "id": "osmp/1128",
      "type": "node",
      "osm_id": 0,
      "lat": 60.4571193,
      "lon": 22.2707476,
      "tags": {
        "amenity": "kindergarten",
        "name": "Päiväkoti Sinikello"
      }
    },
    {
      "id": "osmp/1142",
      "type": "node",
      "osm_id": 0,
      "lat": 60.5918922,
      "lon": 22.3800469,
      "tags": {
        "amenity": "library",
        "name": "Paattisten kirjasto"
      }
    },
    {
      "id": "osmp/1150",
      "type": "node",
      "osm_id": 0,
      "lat": 60.4459883,
      "lon": 22.41269,
      "tags": {
        "amenity": "library",
        "name": "Littoisten kirjasto"
      }
    },
    {
      "id": "osmp/1289",
      "type": "node",
      "osm_id": 0,
      "lat": 60.4106205,
      "lon": 22.3738096,
      "tags": {
        "amenity": "childcare",
        "name": "Vuorokoti Rinkeli"
      }
    },
    {
      "id": "osmp/1303",
      "type": "node",
      "osm_id": 0,
      "lat": 60.4703602,
      "lon": 21.8722272,
      "tags": {
        "amenity": "library",
        "name": "Merimaskun lähikirjasto"
      }
    },
    {
      "id": "osmp/1422",
      "type": "node",
      "osm_id": 0,
      "lat": 60.4075681,
      "lon": 22.3370106,
      "tags": {
        "amenity": "childcare",
        "name": "Piispanlähteen Lastentalo"
      }
    },
    {
      "id": "osmp/1465",
      "type": "node",
      "osm_id": 0,
      "lat": 60.4855456,
      "lon": 22.2437322,
      "tags": {
        "amenity": "childcare",
        "operator": "Päiväkoti Karusellimaa Oy",
        "name": "Karusellimaa"
      }
    },
    {
      "id": "osmp/1470",
      "type": "node",
      "osm_id": 0,
      "lat": 60.478727,
      "lon": 22.2419591,
      "tags": {
        "amenity": "kindergarten"
      }
    },
    {
      "id": "osmp/1478",
      "type": "node",
      "osm_id": 0,
      "lat": 60.5736488,
      "lon": 21.8657625,
      "tags": {
        "amenity": "library",
        "name": "Askaisten kirjasto, Masku"
      }
    },
    {
      "id": "osmp/1484",
      "type": "node",
      "osm_id": 0,
      "lat": 60.4144993,
      "lon": 21.0429719,
      "tags": {
        "amenity": "library",
        "name": "Brändö kommunbibliotek"
      }
    },
    {
      "id": "osmp/1507",
      "type": "node",
      "osm_id": 0,
      "lat": 60.1319146,
      "lon": 21.9682521,
      "tags": {
        "amenity": "library",
        "name": "Bok Malen"
      }
    },
    {
      "id": "osmp/1526",
      "type": "node",
      "osm_id": 0,
      "lat": 60.4631326,
      "lon": 22.2192964,
      "tags": {
        "amenity": "childcare"
      }
    },
    {
      "id": "osmp/1550",
      "type": "node",
      "osm_id": 0,
      "lat": 60.4367959,
      "lon": 22.2972757,
      "tags": {
        "amenity": "library",
        "name": "Vasaramäen kirjasto"
      }
    },
    {
      "id": "osmp/2112",
      "type": "node",
      "osm_id": 0,
      "lat": 60.4898353,
      "lon": 22.1045043,
      "tags": {
        "amenity": "kindergarten",
        "name": "Hakinmäen päiväkodin Satelliitti"
      }
    },
    {
      "id": "osmp/2188",
      "type": "node",
      "osm_id": 0,
      "lat": 60.4807589,
      "lon": 22.1709464,
      "tags": {
        "amenity": "school",
        "name": "Raision työväenopisto"
      }
    },
    {
      "id": "osmp/2189",
      "type": "node",
      "osm_id": 0,
      "lat": 60.4902787,
      "lon": 22.1565447,
      "tags": {
        "amenity": "school",
        "name": "Luontokerho"
      }
    },
    {
      "id": "osmp/2223",
      "type": "node",
      "osm_id": 0,
      "lat": 60.463177,
      "lon": 22.1981691,
      "tags": {
        "amenity": "kindergarten",
        "name": "Päiväkoti Peikonpesä"
      }
    },
    {
      "id": "osmp/2308",
      "type": "node",
      "osm_id": 0,
      "lat": 60.4084801,
      "lon": 22.3675566,
      "tags": {
        "amenity": "library",
        "operator": "Vaski kirjastot",
        "name": "Kaarinan pääkirjasto"
      }
    },
    {
      "id": "osmp/2425",
      "type": "node",
      "osm_id": 0,
      "lat": 60.4639,
      "lon": 22.2984837,
      "tags": {
        "amenity": "kindergarten",
        "name": "Daycare Daisy"
      }
    },
    {
      "id": "osmp/2426",
      "type": "node",
      "osm_id": 0,
      "lat": 60.4636582,
      "lon": 22.295653,
      "tags": {
        "amenity": "kindergarten",
        "name": "Steinerpäiväkoti Pikku Tammi"
      }
    },
    {
      "id": "osmp/2427",
      "type": "node",
      "osm_id": 0,
      "lat": 60.4198386,
      "lon": 22.2270612,
      "tags": {
        "amenity": "library",
        "operator": "Vaski-kirjastot",
        "name": "Hirvensalon kirjasto"
      }
    },
    {
      "id": "osmp/4668",
      "type": "node",
      "osm_id": 0,
      "lat": 60.4494675,
      "lon": 22.2919007,
      "tags": {
        "amenity": "library",
        "operator": "Turun Yliopisto",
        "name": "Teutorin kirjasto"
      }
    },
    {
      "id": "osmp/4669",
      "type": "node",
      "osm_id": 0,
      "lat": 60.4798349,
      "lon": 22.3247293,
      "tags": {
        "amenity": "school",
        "operator": "Turun ammatti-instituutti",
        "name": "Logistiikan koulutuskeskus"
      }
    },
    {
      "id": "osmp/4678",
      "type": "node",
      "osm_id": 0,
      "lat": 60.4425796,
      "lon": 22.2469331,
      "tags": {
        "amenity": "kindergarten",
        "name": "Lastentalo Mukulax Linnanrinne"
      }
    },
    {
      "id": "osmp/4681",
      "type": "node",
      "osm_id": 0,
      "lat": 60.3938733,
      "lon": 22.2176868,
      "tags": {
        "amenity": "kindergarten",
        "name": "Haarla-Pikisaaren päivähoitoyksikkö"
      }
    },
    {
      "id": "osmp/4682",
      "type": "node",
      "osm_id": 0,
      "lat": 60.4496172,
      "lon": 22.2894067,
      "tags": {
        "amenity": "university",
        "operator": "Turun yliopisto",
        "name": "Turun kesäyliopisto"
      }
    },
    {
      "id": "osmp/4683",
      "type": "node",
      "osm_id": 0,
      "lat": 60.4493735,
      "lon": 22.2950204,
      "tags": {
        "amenity": "college",
        "operator": "Turun ammattikorkeakoulu",
        "name": "Turun ammattikorkeakoulu, ICT-City"
      }
    },
    {
      "id": "osmp/4714",
      "type": "node",
      "osm_id": 0,
      "lat": 60.4848884,
      "lon": 22.1545798,
      "tags": {
        "amenity": "kindergarten",
        "name": "Nokilan esiopetus"
      }
    },
    {
      "id": "osmp/4717",
      "type": "node",
      "osm_id": 0,
      "lat": 60.4963116,
      "lon": 22.2169202,
      "tags": {
        "amenity": "library",
        "operator": "Turun Yliopisto",
        "name": "Sanomalehti- ja pienpainatepalvelut"
      }
    },
    {
      "id": "osmp/4721",
      "type": "node",
      "osm_id": 0,
      "lat": 60.4570795,
      "lon": 22.2852757,
      "tags": {
        "amenity": "library",
        "operator": "Turun Yliopisto",
        "name": "Calonian kirjasto"
      }
    },
    {
      "id": "osmp/4729",
      "type": "node",
      "osm_id": 0,
      "lat": 60.223237,
      "lon": 21.3725218,
      "tags": {
        "amenity": "library",
        "operator": "Blanka",
        "name": "Houtskär bibliotek"
      }
    },
    {
      "id": "osmp/4730",
      "type": "node",
      "osm_id": 0,
      "lat": 60.3707792,
      "lon": 22.2907448,
      "tags": {
        "amenity": "library",
        "operator": "Humak",
        "name": "Humak Turun kampus / Paasikivi - opisto"
      }
    },
    {
      "id": "osmp/4733",
      "type": "node",
      "osm_id": 0,
      "lat": 60.454563,
      "lon": 22.2888421,
      "tags": {
        "amenity": "library",
        "operator": "Turun Yliopisto",
        "name": "Kauppakorkeakoulun kirjasto"
      }
    },
    {
      "id": "osmp/4735",
      "type": "node",
      "osm_id": 0,
      "lat": 60.4466362,
      "lon": 22.2996805,
      "tags": {
        "amenity": "library",
        "operator": "Turun ammattikorkeakoulu AMK",
        "name": "Lemminkäisenkadun kampuskirjasto Lemppari"
      }
    },
    {
      "id": "osmp/4743",
      "type": "node",
      "osm_id": 0,
      "lat": 60.4545915,
      "lon": 22.2838669,
      "tags": {
        "amenity": "library",
        "operator": "Turun yliopisto",
        "name": "Feeniks-kirjasto"
      }
    },
    {
      "id": "osmp/4753",
      "type": "node",
      "osm_id": 0,
      "lat": 60.5073238,
      "lon": 22.3801157,
      "tags": {
        "amenity": "childcare"
      }
    },
    {
      "id": "osmp/4755",
      "type": "node",
      "osm_id": 0,
      "lat": 60.4425553,
      "lon": 22.3601563,
      "tags": {
        "amenity": "library",
        "operator": "Turun kaupunki",
        "name": "Varissuon kirjasto"
      }
    },
    {
      "id": "osmp/4757",
      "type": "node",
      "osm_id": 0,
      "lat": 60.4554884,
      "lon": 22.2659543,
      "tags": {
        "amenity": "school",
        "name": "Turun kuvataidekoulu"
      }
    },
    {
      "id": "osmp/4758",
      "type": "node",
      "osm_id": 0,
      "lat": 60.1632486,
      "lon": 22.7315245,
      "tags": {
        "amenity": "library",
        "operator": "Blanka",
        "name": "Kimito bibliotek"
      }
    },
    {
      "id": "osmp/4760",
      "type": "node",
      "osm_id": 0,
      "lat": 60.5012243,
      "lon": 22.4522792,
      "tags": {
        "amenity": "library",
        "name": "Keskuskoulun ja lukion koulukirjasto"
      }
    },
    {
      "id": "osmp/4761",
      "type": "node",
      "osm_id": 0,
      "lat": 60.4374678,
      "lon": 22.2505387,
      "tags": {
        "amenity": "kindergarten",
        "name": "Martin päivähoitoyksikkö"
      }
    },
    {
      "id": "osmp/4764",
      "type": "node",
      "osm_id": 0,
      "lat": 60.3274576,
      "lon": 22.9424787,
      "tags": {
        "amenity": "school",
        "name": "Meri-Halikon koulu"
      }
    },
    {
      "id": "osmp/4766",
      "type": "node",
      "osm_id": 0,
      "lat": 60.4463286,
      "lon": 22.2796724,
      "tags": {
        "amenity": "kindergarten",
        "name": "Sirkkala daghem och förskola"
      }
    },
    {
      "id": "osmp/4772",
      "type": "node",
      "osm_id": 0,
      "lat": 60.5434079,
      "lon": 22.3205499,
      "tags": {
        "amenity": "library",
        "name": "Yli-Maarian kirjasto"
      }
    },
    {
      "id": "osmp/4773",
      "type": "node",
      "osm_id": 0,
      "lat": 60.5432003,
      "lon": 22.3210642,
      "tags": {
        "amenity": "kindergarten"
      }
    },
    {
      "id": "osmp/4782",
      "type": "node",
      "osm_id": 0,
      "lat": 60.5871052,
      "lon": 22.8877852,
      "tags": {
        "amenity": "childcare"
      }
    },
    {
      "id": "osmp/4795",
      "type": "node",
      "osm_id": 0,
      "lat": 60.4725902,
      "lon": 22.1740066,
      "tags": {
        "amenity": "kindergarten",
        "name": "Ihalan ja Konsan esiopetus"
      }
    },
    {
      "id": "osmp/4801",
      "type": "node",
      "osm_id": 0,
      "lat": 60.5458271,
      "lon": 21.3636168,
      "tags": {
        "amenity": "library",
        "operator": "Vaski kirjastot",
        "name": "Kustavin kunnankirjasto"
      }
    },
    {
      "id": "osmp/4807",
      "type": "node",
      "osm_id": 0,
      "lat": 60.4484699,
      "lon": 22.2975106,
      "tags": {
        "amenity": "library",
        "operator": "Turun AMK",
        "name": "Turun AMK Kupittaan kampuskirjasto EduCity"
      }
    },
    {
      "id": "osmp/4814",
      "type": "node",
      "osm_id": 0,
      "lat": 60.50525,
      "lon": 22.4546663,
      "tags": {
        "amenity": "childcare",
        "name": "Päiväkoti Hanhilinna"
      }
    },
    {
      "id": "osmp/4817",
      "type": "node",
      "osm_id": 0,
      "lat": 60.3019392,
      "lon": 22.2908613,
      "tags": {
        "amenity": "school",
        "operator": "Paraisten kaupunki",
        "name": "Paraisten lukio"
      }
    },
    {
      "id": "osmp/4844",
      "type": "node",
      "osm_id": 0,
      "lat": 60.2250589,
      "lon": 21.3763556,
      "tags": {
        "amenity": "kindergarten",
        "name": "Houtskärs daghem"
      }
    },
    {
      "id": "osmp/4853",
      "type": "node",
      "osm_id": 0,
      "lat": 60.3954326,
      "lon": 21.390526,
      "tags": {
        "amenity": "kindergarten",
        "name": "Iniö daghem"
      }
    },
    {
      "id": "osmp/4875",
      "type": "node",
      "osm_id": 0,
      "lat": 60.4088212,
      "lon": 22.2278903,
      "tags": {
        "amenity": "kindergarten",
        "name": "Kukolan päivähoitoyksikkö"
      }
    },
    {
      "id": "osmp/4877",
      "type": "node",
      "osm_id": 0,
      "lat": 60.4571953,
      "lon": 22.2788264,
      "tags": {
        "amenity": "library",
        "operator": "Åbo Akademi",
        "name": "Arkens bibliotek"
      }
    },
    {
      "id": "osmp/4880",
      "type": "node",
      "osm_id": 0,
      "lat": 60.5580199,
      "lon": 21.6135594,
      "tags": {
        "amenity": "kindergarten",
        "name": "Päiväkoti Pikkupoiju"
      }
    },
    {
      "id": "osmp/4892",
      "type": "node",
      "osm_id": 0,
      "lat": 60.4183917,
      "lon": 21.8907469,
      "tags": {
        "amenity": "kindergarten",
        "operator": "Naatali kaupunki",
        "name": "Rymättylän päiväkoti"
      }
    },
    {
      "id": "osmp/4992",
      "type": "node",
      "osm_id": 0,
      "lat": 60.4573008,
      "lon": 22.1992746,
      "tags": {
        "amenity": "library",
        "operator": "Turun kaupunki",
        "name": "Aunelan kirjasto"
      }
    },
    {
      "id": "osmp/5020",
      "type": "node",
      "osm_id": 0,
      "lat": 60.4397284,
      "lon": 22.2268011,
      "tags": {
        "amenity": "college",
        "operator": "Novia;Axxell",
        "name": "Aboa Mare"
      }
    },
    {
      "id": "osmp/5025",
      "type": "node",
      "osm_id": 0,
      "lat": 60.4592264,
      "lon": 22.2749784,
      "tags": {
        "amenity": "kindergarten",
        "name": "Tiedekoulu"
      }
    },
    {
      "id": "osmp/5032",
      "type": "node",
      "osm_id": 0,
      "lat": 60.5707415,
      "lon": 22.0971,
      "tags": {
        "amenity": "library",
        "operator": "Vaski-kirjastot",
        "name": "Maskun pääkirjasto"
      }
    },
    {
      "id": "osmp/5073",
      "type": "node",
      "osm_id": 0,
      "lat": 60.4432079,
      "lon": 22.2688413,
      "tags": {
        "amenity": "school",
        "name": "S:t Olofsskolan i Åbo"
      }
    },
    {
      "id": "osmp/5085",
      "type": "node",
      "osm_id": 0,
      "lat": 60.5525723,
      "lon": 22.1242034,
      "tags": {
        "amenity": "childcare",
        "name": "Hoito ja hyvinvointi Hakala"
      }
    },
    {
      "id": "osmp/5098",
      "type": "node",
      "osm_id": 0,
      "lat": 60.4567999,
      "lon": 22.2865501,
      "tags": {
        "amenity": "library",
        "operator": "Turun yliopisto",
        "name": "Arcanumin kirjasto"
      }
    },
    {
      "id": "osmp/5110",
      "type": "node",
      "osm_id": 0,
      "lat": 60.2227748,
      "lon": 21.3707071,
      "tags": {
        "amenity": "library"
      }
    },
    {
      "id": "osmp/5120",
      "type": "node",
      "osm_id": 0,
      "lat": 60.4452853,
      "lon": 22.6999264,
      "tags": {
        "amenity": "childcare",
        "operator": "Verkanappulat",
        "name": "Nappulakaari"
      }
    },
    {
      "id": "osmp/5139",
      "type": "node",
      "osm_id": 0,
      "lat": 60.5615887,
      "lon": 21.6185236,
      "tags": {
        "amenity": "library",
        "name": "Taivassalon kunnankirjasto"
      }
    },
    {
      "id": "osmp/5140",
      "type": "node",
      "osm_id": 0,
      "lat": 60.5579621,
      "lon": 21.6143015,
      "tags": {
        "amenity": "childcare",
        "name": "Päiväkoti Pikkupoiju"
      }
    },
    {
      "id": "osmp/5143",
      "type": "node",
      "osm_id": 0,
      "lat": 60.4561263,
      "lon": 22.2818677,
      "tags": {
        "amenity": "library",
        "name": "ASA - biblioteket"
      }
    },
    {
      "id": "osmp/5153",
      "type": "node",
      "osm_id": 0,
      "lat": 60.2853299,
      "lon": 22.1222599,
      "tags": {
        "amenity": "school",
        "name": "Sunnanbergs skola"
      }
    },
    {
      "id": "osmp/5155",
      "type": "node",
      "osm_id": 0,
      "lat": 60.4627664,
      "lon": 22.6828024,
      "tags": {
        "amenity": "childcare",
        "operator": "Paimion kaupunki",
        "name": "Ala-Vistan päiväkoti"
      }
    },
    {
      "id": "osmp/5165",
      "type": "node",
      "osm_id": 0,
      "lat": 60.473085,
      "lon": 22.0304962,
      "tags": {
        "amenity": "school",
        "name": "Naantalin lukio"
      }
    },
    {
      "id": "osmp/5168",
      "type": "node",
      "osm_id": 0,
      "lat": 60.5404777,
      "lon": 22.3508087,
      "tags": {
        "amenity": "kindergarten",
        "operator": "Turun kaupunki",
        "name": "Arkeologinkadun esikoulu"
      }
    },
    {
      "id": "osmp/5171",
      "type": "node",
      "osm_id": 0,
      "lat": 59.830642,
      "lon": 22.9607363,
      "tags": {
        "amenity": "school",
        "name": "Hankoniemen lukio"
      }
    },
    {
      "id": "osmp/5172",
      "type": "node",
      "osm_id": 0,
      "lat": 59.8266425,
      "lon": 22.9744534,
      "tags": {
        "amenity": "school",
        "name": "Hangö gymnasium"
      }
    },
    {
      "id": "osmp/5178",
      "type": "node",
      "osm_id": 0,
      "lat": 60.4892314,
      "lon": 22.2644447,
      "tags": {
        "amenity": "library",
        "operator": "Turun kaupunki",
        "name": "Runosmäen kirjasto"
      }
    },
    {
      "id": "osmp/5179",
      "type": "node",
      "osm_id": 0,
      "lat": 60.4891437,
      "lon": 22.2638093,
      "tags": {
        "amenity": "childcare",
        "name": "Päiväkoti"
      }
    },
    {
      "id": "osmp/5180",
      "type": "node",
      "osm_id": 0,
      "lat": 60.4892593,
      "lon": 22.2639875,
      "tags": {
        "amenity": "childcare",
        "name": "Avoin päiväkoti"
      }
    },
    {
      "id": "osmp/5181",
      "type": "node",
      "osm_id": 0,
      "lat": 60.4888949,
      "lon": 22.263953,
      "tags": {
        "amenity": "childcare",
        "name": "Päiväkoti"
      }
    },
    {
      "id": "osmp/5224",
      "type": "node",
      "osm_id": 0,
      "lat": 60.4351871,
      "lon": 22.6856257,
      "tags": {
        "amenity": "childcare",
        "name": "verkkanappulat"
      }
    },
    {
      "id": "osmp/5225",
      "type": "node",
      "osm_id": 0,
      "lat": 60.4349903,
      "lon": 22.2249965,
      "tags": {
        "amenity": "kindergarten",
        "name": "Wendy House"
      }
    },
    {
      "id": "osmp/5226",
      "type": "node",
      "osm_id": 0,
      "lat": 60.302242,
      "lon": 22.2909371,
      "tags": {
        "amenity": "school",
        "name": "Axxell i Pargas"
      }
    },
    {
      "id": "osmp/5227",
      "type": "node",
      "osm_id": 0,
      "lat": 60.4395933,
      "lon": 22.2267931,
      "tags": {
        "amenity": "school",
        "name": "Axxell Turku"
      }
    },
    {
      "id": "osmp/5231",
      "type": "node",
      "osm_id": 0,
      "lat": 60.5439802,
      "lon": 22.2185395,
      "tags": {
        "amenity": "library",
        "name": "Ruskon pääkirjasto"
      }
    },
    {
      "id": "osmp/5235",
      "type": "node",
      "osm_id": 0,
      "lat": 60.4550465,
      "lon": 21.9872627,
      "tags": {
        "amenity": "childcare",
        "operator": "Naantalin kaupunki",
        "name": "Luonnonmaan päiväkoti"
      }
    },
    {
      "id": "osmp/5236",
      "type": "node",
      "osm_id": 0,
      "lat": 60.4073309,
      "lon": 22.3363477,
      "tags": {
        "amenity": "kindergarten",
        "name": "Esiopetusyksikkö Otava"
      }
    },
    {
      "id": "osmp/5238",
      "type": "node",
      "osm_id": 0,
      "lat": 60.4120617,
      "lon": 22.3077903,
      "tags": {
        "amenity": "childcare",
        "name": "Haritun avoin päiväkoti"
      }
    },
    {
      "id": "osmp/5249",
      "type": "node",
      "osm_id": 0,
      "lat": 60.4422616,
      "lon": 22.2292857,
      "tags": {
        "amenity": "childcare",
        "name": "Päiväkoti Satuherttua"
      }
    },
    {
      "id": "osmp/5257",
      "type": "node",
      "osm_id": 0,
      "lat": 60.4308443,
      "lon": 22.7202125,
      "tags": {
        "amenity": "childcare",
        "name": "Tapiolan päiväkoti, Paimio"
      }
    },
    {
      "id": "osmp/5258",
      "type": "node",
      "osm_id": 0,
      "lat": 60.4301986,
      "lon": 22.7196025,
      "tags": {
        "amenity": "school",
        "name": "PAKK-Paimion aikuiskoulutuskeskus"
      }
    },
    {
      "id": "osmp/5267",
      "type": "node",
      "osm_id": 0,
      "lat": 60.5004813,
      "lon": 22.4495662,
      "tags": {
        "amenity": "school",
        "religion": "none",
        "operator": "Liedon kaupunki",
        "name": "Liedon lukio"
      }
    },
    {
      "id": "osmp/5270",
      "type": "node",
      "osm_id": 0,
      "lat": 60.4502008,
      "lon": 22.2885294,
      "tags": {
        "amenity": "school",
        "name": "Turun Steiner-koulu"
      }
    },
    {
      "id": "osmp/5297",
      "type": "node",
      "osm_id": 0,
      "lat": 60.4487008,
      "lon": 22.1689951,
      "tags": {
        "amenity": "childcare",
        "operator": "Turun kaupunki",
        "name": "Perno-Pansion päiväkoti"
      }
    },
    {
      "id": "osmp/5318",
      "type": "node",
      "osm_id": 0,
      "lat": 60.4433624,
      "lon": 22.3765463,
      "tags": {
        "amenity": "childcare",
        "operator": "Verkanappulat",
        "name": "Nappulalaakso"
      }
    },
    {
      "id": "osmp/5338",
      "type": "node",
      "osm_id": 0,
      "lat": 60.4365528,
      "lon": 22.2976116,
      "tags": {
        "amenity": "school",
        "name": "Vasaramäen koulu"
      }
    },
    {
      "id": "osmp/5344",
      "type": "node",
      "osm_id": 0,
      "lat": 60.4805954,
      "lon": 22.278844,
      "tags": {
        "amenity": "childcare",
        "operator": "Turun kaupunki",
        "name": "Kaerlantien päiväkodin väistötilat"
      }
    },
    {
      "id": "osmp/5360",
      "type": "node",
      "osm_id": 0,
      "lat": 60.4781099,
      "lon": 22.2854085,
      "tags": {
        "amenity": "childcare",
        "name": "Nättinummen päiväkoti"
      }
    },
    {
      "id": "osmp/5361",
      "type": "node",
      "osm_id": 0,
      "lat": 60.4785358,
      "lon": 22.2854831,
      "tags": {
        "amenity": "school",
        "name": "Jäkärlän koulu, Kärsämäentien väistötilat"
      }
    },
    {
      "id": "osmp/5372",
      "type": "node",
      "osm_id": 0,
      "lat": 60.4903407,
      "lon": 22.2769578,
      "tags": {
        "amenity": "childcare",
        "name": "Ryhmäperhepäivähoitokoti Pikku-Heikki"
      }
    },
    {
      "id": "osmp/5379",
      "type": "way",
      "osm_id": 0,
      "lat": 60.423589160000006,
      "lon": 22.297763273333338,
      "tags": {
        "school": "vocational",
        "amenity": "school",
        "name": "Turun Ammatti-instituutti, Peltolan koulutalo"
      }
    },
    {
      "id": "osmp/5381",
      "type": "way",
      "osm_id": 0,
      "lat": 60.47514469583334,
      "lon": 22.303437325000004,
      "tags": {
        "amenity": "kindergarten",
        "name": "Kuunsillan päiväkoti"
      }
    },
    {
      "id": "osmp/5383",
      "type": "way",
      "osm_id": 0,
      "lat": 60.47067956363637,
      "lon": 22.304977936363642,
      "tags": {
        "amenity": "kindergarten",
        "name": "Cygnaeus daghem och förskola"
      }
    },
    {
      "id": "osmp/5395",
      "type": "way",
      "osm_id": 0,
      "lat": 60.45950586666666,
      "lon": 22.298354775000004,
      "tags": {
        "amenity": "kindergarten",
        "name": "Nummenpuistonkadun päiväkoti"
      }
    },
    {
      "id": "osmp/5396",
      "type": "way",
      "osm_id": 0,
      "lat": 60.450343992307694,
      "lon": 22.308442146153844,
      "tags": {
        "amenity": "kindergarten",
        "name": "Tyksilän päiväkoti"
      }
    },
    {
      "id": "osmp/5397",
      "type": "way",
      "osm_id": 0,
      "lat": 60.447245712,
      "lon": 22.299040684000005,
      "tags": {
        "amenity": "college",
        "operator": "Turun ammattikorkeakoulu",
        "name": "Lemminkäisenkadun kampus"
      }
    },
    {
      "id": "osmp/5398",
      "type": "way",
      "osm_id": 0,
      "lat": 60.458397614285715,
      "lon": 22.322887542857142,
      "tags": {
        "amenity": "kindergarten",
        "name": "Hannunniitun päivähoitoyksikkö"
      }
    },
    {
      "id": "osmp/5399",
      "type": "way",
      "osm_id": 0,
      "lat": 60.23959362352941,
      "lon": 21.962263105882354,
      "tags": {
        "amenity": "university",
        "name": "Skärgårdshavets forsningsinstitut"
      }
    },
    {
      "id": "osmp/5408",
      "type": "way",
      "osm_id": 0,
      "lat": 60.40860094666666,
      "lon": 22.413051446666667,
      "tags": {
        "amenity": "kindergarten"
      }
    },
    {
      "id": "osmp/5411",
      "type": "way",
      "osm_id": 0,
      "lat": 60.43632385555556,
      "lon": 22.302878788888886,
      "tags": {
        "amenity": "kindergarten",
        "name": "Vasaramäen päivähoitoyksikkö"
      }
    },
    {
      "id": "osmp/5413",
      "type": "way",
      "osm_id": 0,
      "lat": 60.449117779999995,
      "lon": 22.35817148,
      "tags": {
        "amenity": "kindergarten",
        "operator": "Turun kaupunki",
        "name": "Koukkarinkadun päiväkoti"
      }
    },
    {
      "id": "osmp/5420",
      "type": "way",
      "osm_id": 0,
      "lat": 60.457254999999996,
      "lon": 22.323821919999997,
      "tags": {
        "amenity": "school"
      }
    },
    {
      "id": "osmp/5455",
      "type": "way",
      "osm_id": 0,
      "lat": 60.42533675833334,
      "lon": 22.504844225,
      "tags": {
        "amenity": "kindergarten"
      }
    },
    {
      "id": "osmp/5459",
      "type": "way",
      "osm_id": 0,
      "lat": 60.45518907142856,
      "lon": 22.371332571428574,
      "tags": {
        "amenity": "kindergarten"
      }
    },
    {
      "id": "osmp/5461",
      "type": "way",
      "osm_id": 0,
      "lat": 60.45799197916666,
      "lon": 22.34700870833333,
      "tags": {
        "amenity": "school",
        "name": "Hannunniitun koulu, Kohmon yksikkö"
      }
    },
    {
      "id": "osmp/5464",
      "type": "way",
      "osm_id": 0,
      "lat": 60.45112338750001,
      "lon": 22.413518568750003,
      "tags": {
        "amenity": "kindergarten"
      }
    },
    {
      "id": "osmp/5467",
      "type": "way",
      "osm_id": 0,
      "lat": 60.304460087500004,
      "lon": 22.3131728625,
      "tags": {
        "amenity": "school",
        "name": "Koivuhaan koulu"
      }
    },
    {
      "id": "osmp/5468",
      "type": "way",
      "osm_id": 0,
      "lat": 60.40781021578946,
      "lon": 22.336723184210527,
      "tags": {
        "amenity": "childcare",
        "name": "Piispanlähteen Koulu"
      }
    },
    {
      "id": "osmp/5474",
      "type": "way",
      "osm_id": 0,
      "lat": 60.46514413333333,
      "lon": 22.267183144444445,
      "tags": {
        "amenity": "kindergarten",
        "name": "Kastun päiväkoti"
      }
    },
    {
      "id": "osmp/5475",
      "type": "way",
      "osm_id": 0,
      "lat": 60.40263683333333,
      "lon": 22.354897655555558,
      "tags": {
        "amenity": "childcare",
        "name": "Koriston päiväkoti - Alatalo"
      }
    },
    {
      "id": "osmp/5479",
      "type": "way",
      "osm_id": 0,
      "lat": 60.41406924,
      "lon": 22.33342002,
      "tags": {
        "amenity": "childcare",
        "name": "Päiväkoti Verkavekarat"
      }
    },
    {
      "id": "osmp/5480",
      "type": "way",
      "osm_id": 0,
      "lat": 60.41111693333333,
      "lon": 22.333770011111113,
      "tags": {
        "amenity": "childcare"
      }
    },
    {
      "id": "osmp/5481",
      "type": "way",
      "osm_id": 0,
      "lat": 60.36815992,
      "lon": 22.48363918,
      "tags": {
        "amenity": "school",
        "name": "Harvaluodon koulu"
      }
    },
    {
      "id": "osmp/5483",
      "type": "way",
      "osm_id": 0,
      "lat": 60.48060997575758,
      "lon": 22.16406607272728,
      "tags": {
        "amenity": "library",
        "operator": "Raision kaupunki",
        "name": "Raision kirjasto"
      }
    },
    {
      "id": "osmp/5485",
      "type": "way",
      "osm_id": 0,
      "lat": 60.45663066000001,
      "lon": 22.28244876,
      "tags": {
        "amenity": "kindergarten",
        "operator": "Folkhälsan",
        "name": "Kastanjen"
      }
    },
    {
      "id": "osmp/5488",
      "type": "way",
      "osm_id": 0,
      "lat": 60.307426388888885,
      "lon": 22.27982914444444,
      "tags": {
        "amenity": "childcare"
      }
    },
    {
      "id": "osmp/5489",
      "type": "way",
      "osm_id": 0,
      "lat": 60.540839766666664,
      "lon": 22.349139483333335,
      "tags": {
        "amenity": "childcare",
        "operator": "Turun kaupunki",
        "name": "Arkeologinkadun päiväkoti"
      }
    },
    {
      "id": "osmp/5493",
      "type": "way",
      "osm_id": 0,
      "lat": 60.40823032000001,
      "lon": 22.23699706,
      "tags": {
        "amenity": "childcare",
        "name": "Sagoön"
      }
    },
    {
      "id": "osmp/5494",
      "type": "way",
      "osm_id": 0,
      "lat": 60.50602587499999,
      "lon": 22.453181549999996,
      "tags": {
        "amenity": "school",
        "name": "Jokilaakson koulu"
      }
    },
    {
      "id": "osmp/5495",
      "type": "way",
      "osm_id": 0,
      "lat": 60.507577575609744,
      "lon": 22.45279003902439,
      "tags": {
        "amenity": "library",
        "name": "Liedon kirjasto"
      }
    },
    {
      "id": "osmp/5502",
      "type": "way",
      "osm_id": 0,
      "lat": 60.47366583571429,
      "lon": 22.308724314285715,
      "tags": {
        "amenity": "kindergarten",
        "name": "Päiväkoti Emmauksenkatu 4"
      }
    },
    {
      "id": "osmp/5504",
      "type": "way",
      "osm_id": 0,
      "lat": 60.34124024210526,
      "lon": 22.361769015789477,
      "tags": {
        "amenity": "kindergarten",
        "name": "Kirjala daghem"
      }
    },
    {
      "id": "osmp/5506",
      "type": "way",
      "osm_id": 0,
      "lat": 60.3017309904762,
      "lon": 22.29546003333333,
      "tags": {
        "amenity": "school",
        "name": "Malms skola"
      }
    },
    {
      "id": "osmp/5507",
      "type": "way",
      "osm_id": 0,
      "lat": 60.27313437222223,
      "lon": 22.272408249999998,
      "tags": {
        "amenity": "school",
        "name": "Åbolands Folkhögskola"
      }
    },
    {
      "id": "osmp/5510",
      "type": "way",
      "osm_id": 0,
      "lat": 60.3848473090909,
      "lon": 22.53007521818182,
      "tags": {
        "amenity": "school",
        "religion": "christian",
        "operator": "Suomen Adventtikirkko",
        "name": "Lukio & Yläkoulu"
      }
    },
    {
      "id": "osmp/5511",
      "type": "way",
      "osm_id": 0,
      "lat": 60.41283627142857,
      "lon": 22.310768735714284,
      "tags": {
        "amenity": "childcare",
        "name": "Pilke Auringonnousu"
      }
    },
    {
      "id": "osmp/5514",
      "type": "way",
      "osm_id": 0,
      "lat": 60.27976861666667,
      "lon": 22.280504466666667,
      "tags": {
        "amenity": "school",
        "name": "Skräbböle skola"
      }
    },
    {
      "id": "osmp/5515",
      "type": "way",
      "osm_id": 0,
      "lat": 60.28237726000001,
      "lon": 22.278359560000002,
      "tags": {
        "amenity": "kindergarten",
        "name": "Eftis"
      }
    },
    {
      "id": "osmp/5516",
      "type": "way",
      "osm_id": 0,
      "lat": 60.30137434117646,
      "lon": 22.291403088235295,
      "tags": {
        "amenity": "school"
      }
    },
    {
      "id": "osmp/5517",
      "type": "way",
      "osm_id": 0,
      "lat": 60.29802862,
      "lon": 22.29897886666667,
      "tags": {
        "amenity": "kindergarten",
        "name": "Bantis"
      }
    },
    {
      "id": "osmp/5519",
      "type": "way",
      "osm_id": 0,
      "lat": 60.022161080000004,
      "lon": 22.50378542,
      "tags": {
        "amenity": "library",
        "name": "Dragsfjärds kommunbibliotek"
      }
    },
    {
      "id": "osmp/5531",
      "type": "way",
      "osm_id": 0,
      "lat": 60.446665689999996,
      "lon": 22.2743185,
      "tags": {
        "amenity": "childcare"
      }
    },
    {
      "id": "osmp/5535",
      "type": "way",
      "osm_id": 0,
      "lat": 60.19156240714285,
      "lon": 21.905622392857143,
      "tags": {
        "amenity": "library",
        "name": "Nagu bibliotek"
      }
    },
    {
      "id": "osmp/5537",
      "type": "way",
      "osm_id": 0,
      "lat": 60.440039156521735,
      "lon": 22.29331684347826,
      "tags": {
        "amenity": "school",
        "name": "Vasaramäen koulu, Syreenikujan yksikkö"
      }
    },
    {
      "id": "osmp/5547",
      "type": "way",
      "osm_id": 0,
      "lat": 60.304334128571426,
      "lon": 22.315689999999996,
      "tags": {
        "amenity": "kindergarten",
        "name": "Björkhagens daghem"
      }
    },
    {
      "id": "osmp/5554",
      "type": "way",
      "osm_id": 0,
      "lat": 60.34450806666668,
      "lon": 22.69581442222222,
      "tags": {
        "amenity": "library",
        "name": "Sauvon kirjasto"
      }
    },
    {
      "id": "osmp/5556",
      "type": "way",
      "osm_id": 0,
      "lat": 60.5028086875,
      "lon": 22.3776437875,
      "tags": {
        "amenity": "kindergarten"
      }
    },
    {
      "id": "osmp/5557",
      "type": "way",
      "osm_id": 0,
      "lat": 60.50860701818183,
      "lon": 22.37762968181818,
      "tags": {
        "amenity": "kindergarten",
        "name": "Päiväkoti Lintukoto"
      }
    },
    {
      "id": "osmp/5563",
      "type": "way",
      "osm_id": 0,
      "lat": 60.5591921,
      "lon": 22.448227275000004,
      "tags": {
        "amenity": "school",
        "name": "Pahkamäen koulu"
      }
    },
    {
      "id": "osmp/5569",
      "type": "way",
      "osm_id": 0,
      "lat": 60.43420236000001,
      "lon": 22.3511102,
      "tags": {
        "amenity": "kindergarten",
        "name": "Päiväkoti Villasukka"
      }
    },
    {
      "id": "osmp/5572",
      "type": "way",
      "osm_id": 0,
      "lat": 60.454416188888885,
      "lon": 22.41177854444444,
      "tags": {
        "amenity": "childcare"
      }
    },
    {
      "id": "osmp/5573",
      "type": "way",
      "osm_id": 0,
      "lat": 60.431931750000004,
      "lon": 22.33691055,
      "tags": {
        "amenity": "kindergarten",
        "name": "Karhunaukion päiväkoti"
      }
    },
    {
      "id": "osmp/5574",
      "type": "way",
      "osm_id": 0,
      "lat": 60.481141109090906,
      "lon": 22.246341772727273,
      "tags": {
        "amenity": "childcare",
        "operator": "Lastenpäiväkoti Satunummi Oy",
        "name": "Satunummi"
      }
    },
    {
      "id": "osmp/5575",
      "type": "way",
      "osm_id": 0,
      "lat": 60.44779730526315,
      "lon": 22.260929626315786,
      "tags": {
        "amenity": "school",
        "name": "Turun klassillinen lukio"
      }
    },
    {
      "id": "osmp/5579",
      "type": "way",
      "osm_id": 0,
      "lat": 60.460017862499996,
      "lon": 22.296116275000003,
      "tags": {
        "amenity": "kindergarten",
        "name": "Naperonummi"
      }
    },
    {
      "id": "osmp/5580",
      "type": "way",
      "osm_id": 0,
      "lat": 60.447937200000005,
      "lon": 22.252846312499997,
      "tags": {
        "amenity": "kindergarten",
        "name": "Cygnaeus förskola"
      }
    },
    {
      "id": "osmp/5581",
      "type": "way",
      "osm_id": 0,
      "lat": 60.48751616153846,
      "lon": 22.255145046153846,
      "tags": {
        "amenity": "childcare"
      }
    },
    {
      "id": "osmp/5584",
      "type": "way",
      "osm_id": 0,
      "lat": 60.47934415000001,
      "lon": 22.27883160416667,
      "tags": {
        "amenity": "childcare",
        "name": "Kaerlan päivähoitoyksikkö"
      }
    },
    {
      "id": "osmp/5585",
      "type": "way",
      "osm_id": 0,
      "lat": 60.44466680000001,
      "lon": 22.34245013076923,
      "tags": {
        "amenity": "kindergarten",
        "name": "Päiväkoti Peppiina"
      }
    },
    {
      "id": "osmp/5586",
      "type": "way",
      "osm_id": 0,
      "lat": 60.44656136363637,
      "lon": 22.276690927272725,
      "tags": {
        "amenity": "childcare",
        "operator": "Folkhälsan Välfärd",
        "name": "Sirkkala eftis"
      }
    },
    {
      "id": "osmp/5589",
      "type": "way",
      "osm_id": 0,
      "lat": 60.357145719999984,
      "lon": 21.068913753333334,
      "tags": {
        "amenity": "kindergarten",
        "name": "Milan"
      }
    },
    {
      "id": "osmp/5593",
      "type": "way",
      "osm_id": 0,
      "lat": 60.30214299375,
      "lon": 22.164504156250004,
      "tags": {
        "amenity": "school",
        "name": "Sunnabergs skola"
      }
    },
    {
      "id": "osmp/5597",
      "type": "way",
      "osm_id": 0,
      "lat": 60.46123926923077,
      "lon": 21.98714783076923,
      "tags": {
        "amenity": "school"
      }
    },
    {
      "id": "osmp/5601",
      "type": "way",
      "osm_id": 0,
      "lat": 60.51709908888889,
      "lon": 22.464926811111113,
      "tags": {
        "amenity": "kindergarten",
        "name": "Kisakallion päiväkoti"
      }
    },
    {
      "id": "osmp/5603",
      "type": "way",
      "osm_id": 0,
      "lat": 60.571065200000014,
      "lon": 22.108779545454546,
      "tags": {
        "amenity": "school",
        "name": "Maskun Hemmingin koulu"
      }
    },
    {
      "id": "osmp/5609",
      "type": "way",
      "osm_id": 0,
      "lat": 60.597125354545454,
      "lon": 22.089795663636366,
      "tags": {
        "amenity": "childcare"
      }
    },
    {
      "id": "osmp/5610",
      "type": "way",
      "osm_id": 0,
      "lat": 60.2104949875,
      "lon": 21.346812349999997,
      "tags": {
        "amenity": "school",
        "name": "Träsk skola"
      }
    },
    {
      "id": "osmp/5614",
      "type": "way",
      "osm_id": 0,
      "lat": 60.40888745,
      "lon": 22.227796777777776,
      "tags": {
        "amenity": "kindergarten",
        "operator": "Turun kaupunki",
        "name": "Anniitunpäiväkoti"
      }
    },
    {
      "id": "osmp/5615",
      "type": "way",
      "osm_id": 0,
      "lat": 60.497082686666666,
      "lon": 22.032292653333336,
      "tags": {
        "amenity": "kindergarten",
        "name": "Soinisten päiväkoti"
      }
    },
    {
      "id": "osmp/5616",
      "type": "way",
      "osm_id": 0,
      "lat": 60.48916456666666,
      "lon": 22.052290783333333,
      "tags": {
        "amenity": "kindergarten"
      }
    },
    {
      "id": "osmp/5618",
      "type": "way",
      "osm_id": 0,
      "lat": 60.40708235789474,
      "lon": 22.384254031578944,
      "tags": {
        "amenity": "school",
        "name": "Kaarinan lukio"
      }
    },
    {
      "id": "osmp/5619",
      "type": "way",
      "osm_id": 0,
      "lat": 60.40618851249999,
      "lon": 22.383894447499998,
      "tags": {
        "amenity": "school",
        "name": "Valkeavuoren koulu"
      }
    },
    {
      "id": "osmp/5620",
      "type": "way",
      "osm_id": 0,
      "lat": 60.403908680000015,
      "lon": 22.362105764,
      "tags": {
        "amenity": "school",
        "name": "Hovirinnan koulu"
      }
    },
    {
      "id": "osmp/5621",
      "type": "way",
      "osm_id": 0,
      "lat": 60.40747539599999,
      "lon": 22.336224224,
      "tags": {
        "amenity": "school"
      }
    },
    {
      "id": "osmp/5622",
      "type": "way",
      "osm_id": 0,
      "lat": 60.40633653611111,
      "lon": 22.32233728055555,
      "tags": {
        "amenity": "school",
        "name": "Piispanlähteen koulu"
      }
    },
    {
      "id": "osmp/5623",
      "type": "way",
      "osm_id": 0,
      "lat": 60.45258741333334,
      "lon": 22.260198319999994,
      "tags": {
        "amenity": "school",
        "name": "Puolalan koulu"
      }
    },
    {
      "id": "osmp/5624",
      "type": "way",
      "osm_id": 0,
      "lat": 60.453842503846175,
      "lon": 22.26397870769231,
      "tags": {
        "amenity": "school",
        "name": "Puolalan koulu"
      }
    },
    {
      "id": "osmp/5625",
      "type": "way",
      "osm_id": 0,
      "lat": 60.45319404090908,
      "lon": 22.263914179545452,
      "tags": {
        "amenity": "school",
        "name": "Cygnaeus skola"
      }
    },
    {
      "id": "osmp/5626",
      "type": "way",
      "osm_id": 0,
      "lat": 60.45276297142856,
      "lon": 22.264336407142856,
      "tags": {
        "amenity": "school",
        "name": "Puolalanmäen lukio"
      }
    },
    {
      "id": "osmp/5628",
      "type": "way",
      "osm_id": 0,
      "lat": 60.49633995000001,
      "lon": 22.157380214285716,
      "tags": {
        "amenity": "school",
        "name": "Kerttulan koulu"
      }
    },
    {
      "id": "osmp/5629",
      "type": "way",
      "osm_id": 0,
      "lat": 60.49575897142858,
      "lon": 22.156426642857145,
      "tags": {
        "amenity": "kindergarten",
        "name": "Tenavakadun päiväkoti"
      }
    },
    {
      "id": "osmp/5631",
      "type": "way",
      "osm_id": 0,
      "lat": 60.49216088666667,
      "lon": 22.167187886666664,
      "tags": {
        "amenity": "kindergarten",
        "name": "Folkhälsans daghem"
      }
    },
    {
      "id": "osmp/5634",
      "type": "way",
      "osm_id": 0,
      "lat": 60.480780907692306,
      "lon": 22.17094886923077,
      "tags": {
        "amenity": "school",
        "name": "Raision lukio"
      }
    },
    {
      "id": "osmp/5635",
      "type": "way",
      "osm_id": 0,
      "lat": 60.46832155526315,
      "lon": 22.190495860526315,
      "tags": {
        "amenity": "school",
        "name": "Konsan koulu"
      }
    },
    {
      "id": "osmp/5636",
      "type": "way",
      "osm_id": 0,
      "lat": 60.468472199999994,
      "lon": 22.146743045454546,
      "tags": {
        "amenity": "school",
        "name": "Krookilan koulu"
      }
    },
    {
      "id": "osmp/5637",
      "type": "way",
      "osm_id": 0,
      "lat": 60.470107866666666,
      "lon": 22.17636115555555,
      "tags": {
        "amenity": "kindergarten",
        "name": "Lapiokujan lastentarha"
      }
    },
    {
      "id": "osmp/5638",
      "type": "way",
      "osm_id": 0,
      "lat": 60.47229966875,
      "lon": 22.172464168749997,
      "tags": {
        "amenity": "school",
        "name": "Ihalan koulu"
      }
    },
    {
      "id": "osmp/5639",
      "type": "way",
      "osm_id": 0,
      "lat": 60.479379185714286,
      "lon": 22.166744064285716,
      "tags": {
        "amenity": "school",
        "name": "Vaisaaren koulu"
      }
    },
    {
      "id": "osmp/5640",
      "type": "way",
      "osm_id": 0,
      "lat": 60.48314362499999,
      "lon": 22.154425325,
      "tags": {
        "amenity": "school",
        "name": "Friisilän koulu"
      }
    },
    {
      "id": "osmp/5641",
      "type": "way",
      "osm_id": 0,
      "lat": 60.48321645000001,
      "lon": 22.15691245,
      "tags": {
        "amenity": "kindergarten",
        "name": "Varppeen päiväkoti"
      }
    },
    {
      "id": "osmp/5643",
      "type": "way",
      "osm_id": 0,
      "lat": 60.46780932857143,
      "lon": 22.105091492857138,
      "tags": {
        "amenity": "kindergarten",
        "name": "Kaanaan päiväkoti"
      }
    },
    {
      "id": "osmp/5644",
      "type": "way",
      "osm_id": 0,
      "lat": 60.46828483611111,
      "lon": 22.105312477777773,
      "tags": {
        "amenity": "school",
        "name": "Kaanaan koulu"
      }
    },
    {
      "id": "osmp/5645",
      "type": "way",
      "osm_id": 0,
      "lat": 60.4846854368421,
      "lon": 22.12226041052631,
      "tags": {
        "amenity": "school",
        "name": "Tahvion koulu"
      }
    },
    {
      "id": "osmp/5648",
      "type": "way",
      "osm_id": 0,
      "lat": 60.43170673846153,
      "lon": 22.2528327,
      "tags": {
        "amenity": "school",
        "name": "Ammattiopisto Spesia"
      }
    },
    {
      "id": "osmp/5649",
      "type": "way",
      "osm_id": 0,
      "lat": 60.490860562499996,
      "lon": 22.10069001875,
      "tags": {
        "amenity": "school",
        "name": "Tikanmaan koulu"
      }
    },
    {
      "id": "osmp/5650",
      "type": "way",
      "osm_id": 0,
      "lat": 60.490655,
      "lon": 22.101640899999996,
      "tags": {
        "amenity": "kindergarten",
        "name": "Hakinmäen päiväkoti"
      }
    },
    {
      "id": "osmp/5652",
      "type": "way",
      "osm_id": 0,
      "lat": 60.5037601,
      "lon": 22.132396933333336,
      "tags": {
        "amenity": "kindergarten",
        "name": "Petäsmäen päiväkoti"
      }
    },
    {
      "id": "osmp/5653",
      "type": "way",
      "osm_id": 0,
      "lat": 60.46642750588235,
      "lon": 22.258328317647063,
      "tags": {
        "amenity": "school",
        "name": "Rieskalähteen koulu"
      }
    },
    {
      "id": "osmp/5654",
      "type": "way",
      "osm_id": 0,
      "lat": 60.46536547999999,
      "lon": 22.247469226666666,
      "tags": {
        "amenity": "kindergarten",
        "name": "Tommilankadun päiväkoti"
      }
    },
    {
      "id": "osmp/5655",
      "type": "way",
      "osm_id": 0,
      "lat": 60.47663449,
      "lon": 22.24682868,
      "tags": {
        "amenity": "school",
        "name": "Hepokullan koulu"
      }
    },
    {
      "id": "osmp/5656",
      "type": "way",
      "osm_id": 0,
      "lat": 60.47669373333333,
      "lon": 22.245225499999997,
      "tags": {
        "amenity": "school",
        "name": "Luolavuoren koulu (Hepokullan yksikkö)"
      }
    },
    {
      "id": "osmp/5657",
      "type": "way",
      "osm_id": 0,
      "lat": 60.45686132222223,
      "lon": 22.199429872222222,
      "tags": {
        "amenity": "school",
        "operator": "Turun kaupunki",
        "name": "Aunelan koulu"
      }
    },
    {
      "id": "osmp/5658",
      "type": "way",
      "osm_id": 0,
      "lat": 60.441169531999996,
      "lon": 22.271635647999997,
      "tags": {
        "amenity": "school",
        "name": "Puropellon koulu"
      }
    },
    {
      "id": "osmp/5661",
      "type": "way",
      "osm_id": 0,
      "lat": 60.43826625806451,
      "lon": 22.259796206451615,
      "tags": {
        "amenity": "school",
        "operator": "Turun konservatorio Oy",
        "name": "Turun konservatorio"
      }
    },
    {
      "id": "osmp/5662",
      "type": "way",
      "osm_id": 0,
      "lat": 60.433821900000005,
      "lon": 22.25263211333333,
      "tags": {
        "amenity": "school",
        "name": "Vähä-Heikkilän koulu"
      }
    },
    {
      "id": "osmp/5663",
      "type": "way",
      "osm_id": 0,
      "lat": 60.44109038888889,
      "lon": 22.26005782222222,
      "tags": {
        "amenity": "school",
        "name": "Luostarivuoren koulun Martin yksikkö"
      }
    },
    {
      "id": "osmp/5664",
      "type": "way",
      "osm_id": 0,
      "lat": 60.4617558,
      "lon": 22.29488173125,
      "tags": {
        "amenity": "school",
        "name": "Nummen koulu"
      }
    },
    {
      "id": "osmp/5665",
      "type": "way",
      "osm_id": 0,
      "lat": 60.460952209999995,
      "lon": 22.294889599999998,
      "tags": {
        "amenity": "school",
        "name": "Katariinan koulu"
      }
    },
    {
      "id": "osmp/5666",
      "type": "way",
      "osm_id": 0,
      "lat": 60.46225105909091,
      "lon": 22.296865445454543,
      "tags": {
        "amenity": "school",
        "name": "Aurajoen koulu"
      }
    },
    {
      "id": "osmp/5667",
      "type": "way",
      "osm_id": 0,
      "lat": 60.43047494285714,
      "lon": 22.297449292857145,
      "tags": {
        "amenity": "college",
        "name": "Turun ammatti-insituutti"
      }
    },
    {
      "id": "osmp/5668",
      "type": "way",
      "osm_id": 0,
      "lat": 60.42991729500001,
      "lon": 22.297076980000003,
      "tags": {
        "amenity": "school",
        "name": "Luolavuoren koulu Ruiskadun yksikkö"
      }
    },
    {
      "id": "osmp/5669",
      "type": "way",
      "osm_id": 0,
      "lat": 60.43662440384616,
      "lon": 22.296829499999994,
      "tags": {
        "amenity": "school"
      }
    },
    {
      "id": "osmp/5670",
      "type": "way",
      "osm_id": 0,
      "lat": 60.445175792857135,
      "lon": 22.270166149999998,
      "tags": {
        "amenity": "school",
        "name": "Luostarivuoren lyseon lukio"
      }
    },
    {
      "id": "osmp/5671",
      "type": "way",
      "osm_id": 0,
      "lat": 60.447143700000005,
      "lon": 22.35825971111111,
      "tags": {
        "amenity": "school",
        "name": "Turun normaalikoulu"
      }
    },
    {
      "id": "osmp/5672",
      "type": "way",
      "osm_id": 0,
      "lat": 60.44693347142857,
      "lon": 22.356923057142854,
      "tags": {
        "amenity": "school",
        "name": "Turun kansainvälinen koulu"
      }
    },
    {
      "id": "osmp/5673",
      "type": "way",
      "osm_id": 0,
      "lat": 60.412235485714284,
      "lon": 22.298815157142855,
      "tags": {
        "amenity": "childcare",
        "name": "Haritun päiväkoti"
      }
    },
    {
      "id": "osmp/5683",
      "type": "way",
      "osm_id": 0,
      "lat": 60.41141318571429,
      "lon": 22.204694457142857,
      "tags": {
        "amenity": "childcare",
        "name": "Touhula Päiväkoti"
      }
    },
    {
      "id": "osmp/5684",
      "type": "way",
      "osm_id": 0,
      "lat": 60.556297244444444,
      "lon": 22.130862744444446,
      "tags": {
        "amenity": "childcare"
      }
    },
    {
      "id": "osmp/5692",
      "type": "way",
      "osm_id": 0,
      "lat": 60.59981364285716,
      "lon": 22.078390792857142,
      "tags": {
        "amenity": "school",
        "name": "Nummen koulu"
      }
    },
    {
      "id": "osmp/5693",
      "type": "way",
      "osm_id": 0,
      "lat": 60.479082196875005,
      "lon": 22.302729315625005,
      "tags": {
        "amenity": "school",
        "religion": "christian",
        "denomination": "lutheran",
        "name": "Linnasmäen opisto"
      }
    },
    {
      "id": "osmp/5694",
      "type": "way",
      "osm_id": 0,
      "lat": 60.411537557142864,
      "lon": 22.204812521428575,
      "tags": {
        "amenity": "kindergarten",
        "name": "Mukulax Hirvensalo"
      }
    },
    {
      "id": "osmp/5695",
      "type": "way",
      "osm_id": 0,
      "lat": 60.45001458571429,
      "lon": 22.168483114285713,
      "tags": {
        "amenity": "school",
        "name": "Pansion koulu"
      }
    },
    {
      "id": "osmp/5702",
      "type": "way",
      "osm_id": 0,
      "lat": 60.4699049631579,
      "lon": 22.231181894736846,
      "tags": {
        "amenity": "school",
        "name": "Teräsrautelan koulu"
      }
    },
    {
      "id": "osmp/5705",
      "type": "way",
      "osm_id": 0,
      "lat": 60.487730506249996,
      "lon": 22.196048793750002,
      "tags": {
        "amenity": "school",
        "name": "Kuloisten koulu"
      }
    },
    {
      "id": "osmp/5706",
      "type": "way",
      "osm_id": 0,
      "lat": 60.485736293333325,
      "lon": 22.184285139999997,
      "tags": {
        "amenity": "kindergarten",
        "name": "Leijapuiston päiväkoti"
      }
    },
    {
      "id": "osmp/5709",
      "type": "way",
      "osm_id": 0,
      "lat": 60.453299355555565,
      "lon": 22.012327999999997,
      "tags": {
        "amenity": "childcare",
        "name": "Viialan päiväkoti"
      }
    },
    {
      "id": "osmp/5713",
      "type": "way",
      "osm_id": 0,
      "lat": 60.480018599999994,
      "lon": 22.1865340375,
      "tags": {
        "amenity": "kindergarten",
        "name": "Kuloisten päiväkoti"
      }
    },
    {
      "id": "osmp/5724",
      "type": "way",
      "osm_id": 0,
      "lat": 60.457058660714274,
      "lon": 22.279242657142856,
      "tags": {
        "amenity": "university",
        "operator": "Åbo Akademi",
        "name": "Arken"
      }
    },
    {
      "id": "osmp/5727",
      "type": "way",
      "osm_id": 0,
      "lat": 60.393986457777764,
      "lon": 22.218200353333327,
      "tags": {
        "amenity": "school",
        "name": "Haarlan koulu"
      }
    },
    {
      "id": "osmp/5728",
      "type": "way",
      "osm_id": 0,
      "lat": 60.47087701025641,
      "lon": 22.31531662820513,
      "tags": {
        "amenity": "school",
        "name": "Katariinan koulun ja Nummenpakan koulun Halisten yksiköt"
      }
    },
    {
      "id": "osmp/5730",
      "type": "way",
      "osm_id": 0,
      "lat": 60.45191818666665,
      "lon": 22.411202433333326,
      "tags": {
        "amenity": "school",
        "name": "Littoisten koulu"
      }
    },
    {
      "id": "osmp/5731",
      "type": "way",
      "osm_id": 0,
      "lat": 60.44643638,
      "lon": 22.398863666666667,
      "tags": {
        "amenity": "school",
        "name": "Ristikallion koulu"
      }
    },
    {
      "id": "osmp/5732",
      "type": "way",
      "osm_id": 0,
      "lat": 60.4510613,
      "lon": 22.414529286666667,
      "tags": {
        "amenity": "childcare"
      }
    },
    {
      "id": "osmp/5733",
      "type": "way",
      "osm_id": 0,
      "lat": 60.547823859999994,
      "lon": 22.13345698,
      "tags": {
        "amenity": "childcare",
        "name": "Päiväkoti Nappularanta"
      }
    },
    {
      "id": "osmp/5734",
      "type": "way",
      "osm_id": 0,
      "lat": 60.46617251666666,
      "lon": 22.021764633333333,
      "tags": {
        "amenity": "school",
        "operator": "Naaantalin kaupunki",
        "name": "Kuparivuoren koulu"
      }
    },
    {
      "id": "osmp/5735",
      "type": "way",
      "osm_id": 0,
      "lat": 60.492387042857146,
      "lon": 22.411643535714283,
      "tags": {
        "amenity": "kindergarten",
        "name": "Kukonharjan päiväkoti"
      }
    },
    {
      "id": "osmp/5736",
      "type": "way",
      "osm_id": 0,
      "lat": 60.48810161818181,
      "lon": 22.196499099999997,
      "tags": {
        "amenity": "kindergarten",
        "name": "Pasalan päiväkoti"
      }
    },
    {
      "id": "osmp/5738",
      "type": "way",
      "osm_id": 0,
      "lat": 60.48925724666667,
      "lon": 22.23468709333333,
      "tags": {
        "amenity": "childcare",
        "name": "Touhula Nättinummi"
      }
    },
    {
      "id": "osmp/5739",
      "type": "way",
      "osm_id": 0,
      "lat": 60.48931045882353,
      "lon": 22.23487597647059,
      "tags": {
        "amenity": "kindergarten",
        "name": "Touhula Nättinummi"
      }
    },
    {
      "id": "osmp/5740",
      "type": "way",
      "osm_id": 0,
      "lat": 60.49140833076923,
      "lon": 22.268198328205127,
      "tags": {
        "amenity": "school"
      }
    },
    {
      "id": "osmp/5743",
      "type": "way",
      "osm_id": 0,
      "lat": 60.5392248375,
      "lon": 22.3485869875,
      "tags": {
        "amenity": "kindergarten",
        "name": "Arkeologinkadun päivähoitoyksikkö"
      }
    },
    {
      "id": "osmp/5744",
      "type": "way",
      "osm_id": 0,
      "lat": 60.467861187500006,
      "lon": 22.104864125,
      "tags": {
        "amenity": "childcare"
      }
    },
    {
      "id": "osmp/5745",
      "type": "way",
      "osm_id": 0,
      "lat": 60.45919291333333,
      "lon": 22.25644977333333,
      "tags": {
        "amenity": "school",
        "operator": "Turun ammatti-instituutti TAI",
        "name": "Turun ammatti-instituutti, Juhannuskukkulan toimitilat"
      }
    },
    {
      "id": "osmp/5747",
      "type": "way",
      "osm_id": 0,
      "lat": 60.47217032941175,
      "lon": 22.036352258823534,
      "tags": {
        "amenity": "school",
        "name": "Maijamäen koulu, Kalevanniemen koulutalo"
      }
    },
    {
      "id": "osmp/5748",
      "type": "way",
      "osm_id": 0,
      "lat": 60.47286444545455,
      "lon": 22.03154578181818,
      "tags": {
        "amenity": "school",
        "name": "Maijamäen koulu"
      }
    },
    {
      "id": "osmp/5749",
      "type": "way",
      "osm_id": 0,
      "lat": 60.48520378461539,
      "lon": 22.06559522307692,
      "tags": {
        "amenity": "school",
        "name": "Lietsalan koulu"
      }
    },
    {
      "id": "osmp/5750",
      "type": "way",
      "osm_id": 0,
      "lat": 60.478853914285715,
      "lon": 22.050121657142856,
      "tags": {
        "amenity": "school",
        "name": "Karvetin koulu"
      }
    },
    {
      "id": "osmp/5751",
      "type": "way",
      "osm_id": 0,
      "lat": 60.48426719166667,
      "lon": 22.05110630833333,
      "tags": {
        "amenity": "kindergarten"
      }
    },
    {
      "id": "osmp/5752",
      "type": "way",
      "osm_id": 0,
      "lat": 60.484129071428576,
      "lon": 22.03819943809524,
      "tags": {
        "amenity": "school",
        "name": "Taimon koulu"
      }
    },
    {
      "id": "osmp/5753",
      "type": "way",
      "osm_id": 0,
      "lat": 60.4872963,
      "lon": 22.055790870588236,
      "tags": {
        "amenity": "school",
        "name": "Suopellon koulu"
      }
    },
    {
      "id": "osmp/5755",
      "type": "way",
      "osm_id": 0,
      "lat": 60.48208464864863,
      "lon": 22.286781462162157,
      "tags": {
        "amenity": "school",
        "name": "Kärsämäen koulu"
      }
    },
    {
      "id": "osmp/5756",
      "type": "way",
      "osm_id": 0,
      "lat": 60.433107805263155,
      "lon": 22.254802484210526,
      "tags": {
        "amenity": "kindergarten",
        "name": "Braheskolan"
      }
    },
    {
      "id": "osmp/5757",
      "type": "way",
      "osm_id": 0,
      "lat": 60.432756576923076,
      "lon": 22.254461515384612,
      "tags": {
        "amenity": "school",
        "name": "Braheskolan"
      }
    },
    {
      "id": "osmp/5758",
      "type": "way",
      "osm_id": 0,
      "lat": 60.50590446000001,
      "lon": 22.45205434,
      "tags": {
        "amenity": "kindergarten"
      }
    },
    {
      "id": "osmp/5760",
      "type": "way",
      "osm_id": 0,
      "lat": 60.41464287,
      "lon": 21.042990235000005,
      "tags": {
        "amenity": "school",
        "name": "Brändö grundskola"
      }
    },
    {
      "id": "osmp/5761",
      "type": "way",
      "osm_id": 0,
      "lat": 60.47659632222222,
      "lon": 22.16563372222222,
      "tags": {
        "amenity": "kindergarten",
        "name": "Vaisaaren päiväkoti"
      }
    },
    {
      "id": "osmp/5763",
      "type": "way",
      "osm_id": 0,
      "lat": 59.8299329,
      "lon": 22.96533488888889,
      "tags": {
        "amenity": "kindergarten",
        "name": "Halmstadintalon päiväkoti"
      }
    },
    {
      "id": "osmp/5765",
      "type": "way",
      "osm_id": 0,
      "lat": 60.58885334285714,
      "lon": 22.88605647142857,
      "tags": {
        "amenity": "school",
        "name": "Marttilan koulu"
      }
    },
    {
      "id": "osmp/5766",
      "type": "way",
      "osm_id": 0,
      "lat": 60.389572038461544,
      "lon": 22.38737366923077,
      "tags": {
        "amenity": "school",
        "name": "Empola"
      }
    },
    {
      "id": "osmp/5767",
      "type": "way",
      "osm_id": 0,
      "lat": 60.38461122105264,
      "lon": 22.403175626315786,
      "tags": {
        "amenity": "school",
        "name": "Kuusiston koulu"
      }
    },
    {
      "id": "osmp/5768",
      "type": "way",
      "osm_id": 0,
      "lat": 60.543903866666675,
      "lon": 22.216961225000002,
      "tags": {
        "amenity": "school",
        "name": "Maunun koulu"
      }
    },
    {
      "id": "osmp/5769",
      "type": "way",
      "osm_id": 0,
      "lat": 60.5451137263158,
      "lon": 22.220176094736843,
      "tags": {
        "amenity": "school",
        "name": "Hiidenvainion koulu"
      }
    },
    {
      "id": "osmp/5770",
      "type": "way",
      "osm_id": 0,
      "lat": 60.54315582857142,
      "lon": 22.22075434285714,
      "tags": {
        "amenity": "school",
        "name": "Kirkonkylän koulu"
      }
    },
    {
      "id": "osmp/5772",
      "type": "way",
      "osm_id": 0,
      "lat": 60.48340282888887,
      "lon": 22.27692632666667,
      "tags": {
        "amenity": "school",
        "name": "Pallivahan koulu"
      }
    },
    {
      "id": "osmp/5773",
      "type": "way",
      "osm_id": 0,
      "lat": 60.556497199999995,
      "lon": 22.1304844,
      "tags": {
        "amenity": "school",
        "name": "Tammenahjon koulu"
      }
    },
    {
      "id": "osmp/5774",
      "type": "way",
      "osm_id": 0,
      "lat": 60.54479319130435,
      "lon": 22.238457682608697,
      "tags": {
        "amenity": "childcare"
      }
    },
    {
      "id": "osmp/5775",
      "type": "way",
      "osm_id": 0,
      "lat": 60.46537308571429,
      "lon": 22.15691462857143,
      "tags": {
        "amenity": "kindergarten",
        "name": "Metsäaron päiväkoti"
      }
    },
    {
      "id": "osmp/5776",
      "type": "way",
      "osm_id": 0,
      "lat": 60.46291082272728,
      "lon": 22.265290304545456,
      "tags": {
        "amenity": "school",
        "name": "Raunistulan koulu"
      }
    },
    {
      "id": "osmp/5777",
      "type": "way",
      "osm_id": 0,
      "lat": 60.529433658333325,
      "lon": 22.29280379166666,
      "tags": {
        "amenity": "school",
        "name": "Yli-Maarian koulu, Moision yksikkö"
      }
    },
    {
      "id": "osmp/5780",
      "type": "way",
      "osm_id": 0,
      "lat": 60.5478634117647,
      "lon": 21.359444782352938,
      "tags": {
        "amenity": "kindergarten",
        "name": "Suotorpan päiväkoti"
      }
    },
    {
      "id": "osmp/5782",
      "type": "way",
      "osm_id": 0,
      "lat": 60.46899611176471,
      "lon": 22.36803557647059,
      "tags": {
        "amenity": "school",
        "name": "Auranlaakson koulu"
      }
    },
    {
      "id": "osmp/5783",
      "type": "way",
      "osm_id": 0,
      "lat": 60.4461341451613,
      "lon": 22.412021219354845,
      "tags": {
        "amenity": "school",
        "name": "Kotimäen koulu"
      }
    },
    {
      "id": "osmp/5784",
      "type": "way",
      "osm_id": 0,
      "lat": 60.44634897307692,
      "lon": 22.281912738461543,
      "tags": {
        "amenity": "school",
        "name": "Sirkkalabackens skola"
      }
    },
    {
      "id": "osmp/5785",
      "type": "way",
      "osm_id": 0,
      "lat": 60.42207142857143,
      "lon": 22.25592598095238,
      "tags": {
        "amenity": "kindergarten",
        "name": "Uittamon päivähoitoyksikkö"
      }
    },
    {
      "id": "osmp/5786",
      "type": "way",
      "osm_id": 0,
      "lat": 60.42698693076923,
      "lon": 22.524279876923078,
      "tags": {
        "amenity": "kindergarten",
        "name": "Tienniityn päiväkoti"
      }
    },
    {
      "id": "osmp/5787",
      "type": "way",
      "osm_id": 0,
      "lat": 60.426845033333336,
      "lon": 22.519129083333336,
      "tags": {
        "amenity": "kindergarten",
        "name": "Päiväkoti Sinivuokko"
      }
    },
    {
      "id": "osmp/5788",
      "type": "way",
      "osm_id": 0,
      "lat": 60.45690554230768,
      "lon": 22.24634353076923,
      "tags": {
        "amenity": "school",
        "name": "Raunistulan koulu, Kähärin yksikkö"
      }
    },
    {
      "id": "osmp/5789",
      "type": "way",
      "osm_id": 0,
      "lat": 60.57298543636364,
      "lon": 21.87412948181818,
      "tags": {
        "amenity": "school",
        "name": "Askaisten koulu"
      }
    },
    {
      "id": "osmp/5790",
      "type": "way",
      "osm_id": 0,
      "lat": 60.59193127142857,
      "lon": 22.379864128571427,
      "tags": {
        "amenity": "school",
        "name": "Paattisten koulu"
      }
    },
    {
      "id": "osmp/5791",
      "type": "way",
      "osm_id": 0,
      "lat": 60.419378325,
      "lon": 22.22691300833333,
      "tags": {
        "amenity": "childcare",
        "name": "Syvälahden päiväkoti"
      }
    },
    {
      "id": "osmp/5792",
      "type": "way",
      "osm_id": 0,
      "lat": 60.42031215142857,
      "lon": 22.226597097142854,
      "tags": {
        "amenity": "school",
        "operator": "Turun kaupunki",
        "name": "Syvälahden koulu"
      }
    },
    {
      "id": "osmp/5794",
      "type": "way",
      "osm_id": 0,
      "lat": 60.48994675,
      "lon": 22.16186015,
      "tags": {
        "amenity": "kindergarten",
        "name": "Lautamiehenkadun päiväkoti"
      }
    },
    {
      "id": "osmp/5800",
      "type": "way",
      "osm_id": 0,
      "lat": 60.43218375,
      "lon": 22.359775079166667,
      "tags": {
        "amenity": "school",
        "name": "Lausteen koulu"
      }
    },
    {
      "id": "osmp/5801",
      "type": "way",
      "osm_id": 0,
      "lat": 60.22561443076923,
      "lon": 21.37778150769231,
      "tags": {
        "amenity": "school",
        "name": "Skärgårdsskolan"
      }
    },
    {
      "id": "osmp/5802",
      "type": "way",
      "osm_id": 0,
      "lat": 60.47136604999999,
      "lon": 22.20843171,
      "tags": {
        "amenity": "kindergarten",
        "name": "Luontopäiväkoti Puisto"
      }
    },
    {
      "id": "osmp/5803",
      "type": "way",
      "osm_id": 0,
      "lat": 60.56217744999999,
      "lon": 22.228192557142854,
      "tags": {
        "amenity": "school",
        "name": "Merttelän koulu"
      }
    },
    {
      "id": "osmp/5804",
      "type": "way",
      "osm_id": 0,
      "lat": 60.5446250375,
      "lon": 22.238496662499998,
      "tags": {
        "amenity": "kindergarten"
      }
    },
    {
      "id": "osmp/5805",
      "type": "way",
      "osm_id": 0,
      "lat": 60.53283805,
      "lon": 22.300164783333333,
      "tags": {
        "amenity": "kindergarten",
        "operator": "City of Turku",
        "name": "Piipari-Moision päiväkoti"
      }
    },
    {
      "id": "osmp/5809",
      "type": "way",
      "osm_id": 0,
      "lat": 60.45054400615385,
      "lon": 22.27165111076923,
      "tags": {
        "amenity": "library",
        "operator": "Turun kaupunginkirjasto",
        "name": "Turun pääkirjasto"
      }
    },
    {
      "id": "osmp/5812",
      "type": "way",
      "osm_id": 0,
      "lat": 60.43826854999999,
      "lon": 22.713484464285706,
      "tags": {
        "amenity": "school",
        "name": "Kriivarin koulu"
      }
    },
    {
      "id": "osmp/5813",
      "type": "way",
      "osm_id": 0,
      "lat": 60.38421711714284,
      "lon": 22.530540265714286,
      "tags": {
        "amenity": "school",
        "operator": "Suomen Adventtikirkko",
        "name": "Suomen kristillinen yhteiskoulu"
      }
    },
    {
      "id": "osmp/5814",
      "type": "way",
      "osm_id": 0,
      "lat": 60.412360989473676,
      "lon": 22.53245142105263,
      "tags": {
        "amenity": "school",
        "name": "Niemenkulman koulu"
      }
    },
    {
      "id": "osmp/5815",
      "type": "way",
      "osm_id": 0,
      "lat": 60.53818304666667,
      "lon": 22.04679906,
      "tags": {
        "amenity": "school",
        "name": "Seikelän koulu"
      }
    },
    {
      "id": "osmp/5816",
      "type": "way",
      "osm_id": 0,
      "lat": 60.54345802631579,
      "lon": 22.320633639473687,
      "tags": {
        "amenity": "school",
        "name": "Yli-Maarian koulu"
      }
    },
    {
      "id": "osmp/5817",
      "type": "way",
      "osm_id": 0,
      "lat": 60.54247221111112,
      "lon": 22.321279211111115,
      "tags": {
        "amenity": "kindergarten",
        "name": "Touhula Liikuntapäiväkoti"
      }
    },
    {
      "id": "osmp/5818",
      "type": "way",
      "osm_id": 0,
      "lat": 60.43915558823531,
      "lon": 22.24103312941177,
      "tags": {
        "amenity": "college",
        "operator": "Turun ammattikorkeakoulu",
        "name": "Linnankadun taidekampus"
      }
    },
    {
      "id": "osmp/5819",
      "type": "way",
      "osm_id": 0,
      "lat": 60.57904252857143,
      "lon": 22.751586214285712,
      "tags": {
        "amenity": "school",
        "name": "Tarvasjoen koulu"
      }
    },
    {
      "id": "osmp/5820",
      "type": "way",
      "osm_id": 0,
      "lat": 60.484035280000015,
      "lon": 22.401043885,
      "tags": {
        "amenity": "school",
        "name": "Loukinaisten koulu"
      }
    },
    {
      "id": "osmp/5821",
      "type": "way",
      "osm_id": 0,
      "lat": 60.4211109125,
      "lon": 22.4701033125,
      "tags": {
        "amenity": "school",
        "name": "Rungon koulu"
      }
    },
    {
      "id": "osmp/5822",
      "type": "way",
      "osm_id": 0,
      "lat": 60.49793984210527,
      "lon": 22.455592894736846,
      "tags": {
        "amenity": "school",
        "name": "Taatilan yhtenäiskoulun alakoulu"
      }
    },
    {
      "id": "osmp/5823",
      "type": "way",
      "osm_id": 0,
      "lat": 60.50678024444445,
      "lon": 22.44957782222222,
      "tags": {
        "amenity": "kindergarten"
      }
    },
    {
      "id": "osmp/5824",
      "type": "way",
      "osm_id": 0,
      "lat": 60.567084838888896,
      "lon": 21.978636566666665,
      "tags": {
        "amenity": "school",
        "name": "Lemun koulu"
      }
    },
    {
      "id": "osmp/5825",
      "type": "way",
      "osm_id": 0,
      "lat": 60.41489443333334,
      "lon": 22.403906799999998,
      "tags": {
        "amenity": "kindergarten"
      }
    },
    {
      "id": "osmp/5826",
      "type": "way",
      "osm_id": 0,
      "lat": 60.43753662222222,
      "lon": 22.275137833333336,
      "tags": {
        "amenity": "kindergarten",
        "name": "Vaahteramäen päiväkoti"
      }
    },
    {
      "id": "osmp/5828",
      "type": "way",
      "osm_id": 0,
      "lat": 60.56785737777778,
      "lon": 21.96633637777778,
      "tags": {
        "amenity": "kindergarten",
        "operator": "Maskun kunta",
        "name": "Lounatuulen päiväkoti"
      }
    },
    {
      "id": "osmp/5829",
      "type": "way",
      "osm_id": 0,
      "lat": 60.460816336363635,
      "lon": 22.27081782727273,
      "tags": {
        "amenity": "kindergarten",
        "name": "Raunistulan päiväkoti"
      }
    },
    {
      "id": "osmp/5830",
      "type": "way",
      "osm_id": 0,
      "lat": 60.5686056,
      "lon": 21.96572236,
      "tags": {
        "amenity": "library",
        "name": "Lemun kirjasto"
      }
    },
    {
      "id": "osmp/5831",
      "type": "way",
      "osm_id": 0,
      "lat": 60.41645834,
      "lon": 22.439770219999996,
      "tags": {
        "amenity": "school"
      }
    },
    {
      "id": "osmp/5832",
      "type": "way",
      "osm_id": 0,
      "lat": 60.416221500000006,
      "lon": 22.44101368571429,
      "tags": {
        "amenity": "school"
      }
    },
    {
      "id": "osmp/5833",
      "type": "way",
      "osm_id": 0,
      "lat": 60.416620008333325,
      "lon": 22.442465474999995,
      "tags": {
        "amenity": "school"
      }
    },
    {
      "id": "osmp/5834",
      "type": "way",
      "osm_id": 0,
      "lat": 60.41583882400001,
      "lon": 22.438072852,
      "tags": {
        "amenity": "school",
        "name": "Ammattiopisto Livia - Maaseutuopisto Tuorla"
      }
    },
    {
      "id": "osmp/5835",
      "type": "way",
      "osm_id": 0,
      "lat": 60.41512534615385,
      "lon": 22.434590823076924,
      "tags": {
        "amenity": "school",
        "operator": "Livia",
        "name": "Ammattiopisto Livia"
      }
    },
    {
      "id": "osmp/5836",
      "type": "way",
      "osm_id": 0,
      "lat": 60.411646743902445,
      "lon": 22.435133868292684,
      "tags": {
        "amenity": "school"
      }
    },
    {
      "id": "osmp/5837",
      "type": "way",
      "osm_id": 0,
      "lat": 60.41879598999999,
      "lon": 22.45651752,
      "tags": {
        "amenity": "kindergarten"
      }
    },
    {
      "id": "osmp/5838",
      "type": "way",
      "osm_id": 0,
      "lat": 60.44762850555556,
      "lon": 22.253614544444446,
      "tags": {
        "amenity": "school",
        "name": "Mikaelin koulu"
      }
    },
    {
      "id": "osmp/5840",
      "type": "way",
      "osm_id": 0,
      "lat": 60.40163741428572,
      "lon": 22.365706714285714,
      "tags": {
        "amenity": "kindergarten",
        "name": "Hovirinnan päiväkoti"
      }
    },
    {
      "id": "osmp/5842",
      "type": "way",
      "osm_id": 0,
      "lat": 60.40504985,
      "lon": 22.32643372,
      "tags": {
        "amenity": "kindergarten"
      }
    },
    {
      "id": "osmp/5845",
      "type": "way",
      "osm_id": 0,
      "lat": 60.45454772,
      "lon": 22.26557693333333,
      "tags": {
        "amenity": "school",
        "name": "Turun Suomalaisen Yhteiskoulun lukio"
      }
    },
    {
      "id": "osmp/5848",
      "type": "way",
      "osm_id": 0,
      "lat": 60.39181882727273,
      "lon": 22.213868709090907,
      "tags": {
        "amenity": "kindergarten"
      }
    },
    {
      "id": "osmp/5849",
      "type": "way",
      "osm_id": 0,
      "lat": 60.3494166625,
      "lon": 22.358700237500003,
      "tags": {
        "amenity": "kindergarten"
      }
    },
    {
      "id": "osmp/5850",
      "type": "way",
      "osm_id": 0,
      "lat": 60.34096949285715,
      "lon": 22.361583085714283,
      "tags": {
        "amenity": "kindergarten"
      }
    },
    {
      "id": "osmp/5851",
      "type": "way",
      "osm_id": 0,
      "lat": 60.32194220652173,
      "lon": 22.354745958695656,
      "tags": {
        "amenity": "school",
        "operator": "Ammattiopisto Livia",
        "name": "Livia, Paraisten toimipaikka"
      }
    },
    {
      "id": "osmp/5852",
      "type": "way",
      "osm_id": 0,
      "lat": 60.437492404000004,
      "lon": 22.264101020000002,
      "tags": {
        "amenity": "kindergarten",
        "name": "Mäntymäen päiväkoti"
      }
    },
    {
      "id": "osmp/5855",
      "type": "way",
      "osm_id": 0,
      "lat": 60.45162188235293,
      "lon": 22.328227217647058,
      "tags": {
        "amenity": "kindergarten",
        "operator": "Touhula",
        "name": "Touhula Jaani"
      }
    },
    {
      "id": "osmp/5856",
      "type": "way",
      "osm_id": 0,
      "lat": 60.45735641666667,
      "lon": 22.328085194444444,
      "tags": {
        "amenity": "kindergarten"
      }
    },
    {
      "id": "osmp/5857",
      "type": "way",
      "osm_id": 0,
      "lat": 60.444267145205494,
      "lon": 22.336288161643836,
      "tags": {
        "amenity": "school",
        "operator": "Turun kaupunki",
        "name": "Pääskyvuoren koulu"
      }
    },
    {
      "id": "osmp/5858",
      "type": "way",
      "osm_id": 0,
      "lat": 60.45098988095238,
      "lon": 22.351944652380947,
      "tags": {
        "amenity": "kindergarten",
        "name": "Orminkujan päiväkoti"
      }
    },
    {
      "id": "osmp/5859",
      "type": "way",
      "osm_id": 0,
      "lat": 60.44677317647058,
      "lon": 22.350219758823528,
      "tags": {
        "amenity": "kindergarten",
        "name": "Päiväkoti Seikonkatu 4 (Piinokankadun päivähoitoyksikkö)"
      }
    },
    {
      "id": "osmp/5860",
      "type": "way",
      "osm_id": 0,
      "lat": 60.4487823882353,
      "lon": 22.349313164705883,
      "tags": {
        "amenity": "kindergarten",
        "operator": "Touhula-päiväkodit",
        "name": "Touhula Varissuo"
      }
    },
    {
      "id": "osmp/5861",
      "type": "way",
      "osm_id": 0,
      "lat": 60.445259783333334,
      "lon": 22.3527017,
      "tags": {
        "amenity": "kindergarten",
        "operator": "Norlandia Päiväkodit",
        "name": "Norlandia Ilo"
      }
    },
    {
      "id": "osmp/5862",
      "type": "way",
      "osm_id": 0,
      "lat": 60.448756366666665,
      "lon": 22.354468416666666,
      "tags": {
        "amenity": "kindergarten",
        "operator": "Turun kaupunki",
        "name": "Piinokankadun päiväkoti"
      }
    },
    {
      "id": "osmp/5863",
      "type": "way",
      "osm_id": 0,
      "lat": 60.4405547,
      "lon": 22.3594586,
      "tags": {
        "amenity": "kindergarten",
        "name": "Hintsankujan päivähoitoyksikkö"
      }
    },
    {
      "id": "osmp/5864",
      "type": "way",
      "osm_id": 0,
      "lat": 60.454092887499996,
      "lon": 22.30269128125,
      "tags": {
        "amenity": "kindergarten",
        "name": "Viinamäenkadun päiväkoti"
      }
    },
    {
      "id": "osmp/5865",
      "type": "way",
      "osm_id": 0,
      "lat": 60.47137408333333,
      "lon": 22.317161916666667,
      "tags": {
        "amenity": "kindergarten",
        "name": "Halisten päivähoitoyksikkö"
      }
    },
    {
      "id": "osmp/5866",
      "type": "way",
      "osm_id": 0,
      "lat": 60.449765358823534,
      "lon": 22.28327814705883,
      "tags": {
        "amenity": "school",
        "name": "Kerttulin lukio"
      }
    },
    {
      "id": "osmp/5868",
      "type": "way",
      "osm_id": 0,
      "lat": 60.470316966666665,
      "lon": 21.870128383333334,
      "tags": {
        "amenity": "kindergarten"
      }
    },
    {
      "id": "osmp/5869",
      "type": "way",
      "osm_id": 0,
      "lat": 60.470964768749994,
      "lon": 21.87239219375,
      "tags": {
        "amenity": "school",
        "name": "Merimaskun koulu"
      }
    },
    {
      "id": "osmp/5873",
      "type": "way",
      "osm_id": 0,
      "lat": 60.4484430375,
      "lon": 22.252513737500003,
      "tags": {
        "amenity": "kindergarten"
      }
    },
    {
      "id": "osmp/5874",
      "type": "way",
      "osm_id": 0,
      "lat": 60.44916183076923,
      "lon": 22.284259869230766,
      "tags": {
        "amenity": "kindergarten",
        "name": "Kerttulin päivähoitoyksikkö"
      }
    },
    {
      "id": "osmp/5875",
      "type": "way",
      "osm_id": 0,
      "lat": 60.432045883333345,
      "lon": 22.255781883333334,
      "tags": {
        "amenity": "kindergarten",
        "operator": "Touhula",
        "name": "Touhula Vähäheikkilä"
      }
    },
    {
      "id": "osmp/5880",
      "type": "way",
      "osm_id": 0,
      "lat": 60.45049145333333,
      "lon": 22.274463620000002,
      "tags": {
        "amenity": "school",
        "name": "Katedralskolan i Åbo"
      }
    },
    {
      "id": "osmp/5881",
      "type": "way",
      "osm_id": 0,
      "lat": 60.472951,
      "lon": 22.234846049999998,
      "tags": {
        "amenity": "kindergarten",
        "name": "Päiväkoti Taikahattu"
      }
    },
    {
      "id": "osmp/5882",
      "type": "way",
      "osm_id": 0,
      "lat": 60.488833675,
      "lon": 22.253743483333334,
      "tags": {
        "amenity": "kindergarten",
        "operator": "Turun kaupunki",
        "name": "Parolanpolun päiväkoti"
      }
    },
    {
      "id": "osmp/5883",
      "type": "way",
      "osm_id": 0,
      "lat": 60.48747156666666,
      "lon": 22.254948833333334,
      "tags": {
        "amenity": "kindergarten",
        "name": "Munterinkadun päiväkoti, Munterinkatu 3"
      }
    },
    {
      "id": "osmp/5884",
      "type": "way",
      "osm_id": 0,
      "lat": 60.48673182499999,
      "lon": 22.2554475875,
      "tags": {
        "amenity": "school",
        "name": "Luolavuoren koulu, Piiparinpolun yksikkö"
      }
    },
    {
      "id": "osmp/5885",
      "type": "way",
      "osm_id": 0,
      "lat": 60.45469212499999,
      "lon": 22.28982869166667,
      "tags": {
        "amenity": "university",
        "operator": "Turun yliopisto",
        "name": "Turun kauppakorkeakoulu"
      }
    },
    {
      "id": "osmp/5888",
      "type": "way",
      "osm_id": 0,
      "lat": 60.46387155714286,
      "lon": 22.738133514285717,
      "tags": {
        "amenity": "childcare",
        "name": "Preitilän päiväkoti"
      }
    },
    {
      "id": "osmp/5891",
      "type": "way",
      "osm_id": 0,
      "lat": 60.465075163636364,
      "lon": 21.666499209090908,
      "tags": {
        "amenity": "school",
        "name": "Velkuan yhtenäiskoulu"
      }
    },
    {
      "id": "osmp/5892",
      "type": "way",
      "osm_id": 0,
      "lat": 60.44066993,
      "lon": 22.32119486,
      "tags": {
        "amenity": "kindergarten",
        "operator": "Folkhälsan",
        "name": "Daghemmet Gunghästen"
      }
    },
    {
      "id": "osmp/5893",
      "type": "way",
      "osm_id": 0,
      "lat": 60.54243471428571,
      "lon": 22.24776142857143,
      "tags": {
        "amenity": "childcare"
      }
    },
    {
      "id": "osmp/5894",
      "type": "way",
      "osm_id": 0,
      "lat": 60.542203709090906,
      "lon": 22.247502254545456,
      "tags": {
        "amenity": "kindergarten"
      }
    },
    {
      "id": "osmp/5895",
      "type": "way",
      "osm_id": 0,
      "lat": 60.54199463076923,
      "lon": 22.247891392307693,
      "tags": {
        "amenity": "childcare"
      }
    },
    {
      "id": "osmp/5898",
      "type": "way",
      "osm_id": 0,
      "lat": 59.82670534117648,
      "lon": 22.974626241176473,
      "tags": {
        "amenity": "school",
        "operator": "Hangon Kaupunki",
        "name": "Hangö högstadium"
      }
    },
    {
      "id": "osmp/5900",
      "type": "way",
      "osm_id": 0,
      "lat": 60.53851954999999,
      "lon": 22.3495683625,
      "tags": {
        "amenity": "school",
        "name": "Jäkärlän koulu"
      }
    },
    {
      "id": "osmp/5901",
      "type": "way",
      "osm_id": 0,
      "lat": 60.44058535294118,
      "lon": 22.321252758823533,
      "tags": {
        "amenity": "childcare"
      }
    },
    {
      "id": "osmp/5904",
      "type": "way",
      "osm_id": 0,
      "lat": 60.41798401428572,
      "lon": 22.29821044285714,
      "tags": {
        "amenity": "kindergarten",
        "name": "Koivula-Petreliuksen päivähoitoyksikkö"
      }
    },
    {
      "id": "osmp/5906",
      "type": "way",
      "osm_id": 0,
      "lat": 60.50103144444443,
      "lon": 22.452432222222217,
      "tags": {
        "amenity": "school",
        "name": "Taatilan yhtenäiskoulun yläkoulu"
      }
    },
    {
      "id": "osmp/5907",
      "type": "way",
      "osm_id": 0,
      "lat": 60.444429517391306,
      "lon": 22.2699789826087,
      "tags": {
        "amenity": "school"
      }
    },
    {
      "id": "osmp/5908",
      "type": "way",
      "osm_id": 0,
      "lat": 60.46946929999999,
      "lon": 22.030737579999997,
      "tags": {
        "amenity": "kindergarten",
        "name": "Kreivinniityn päiväkoti"
      }
    },
    {
      "id": "osmp/5910",
      "type": "way",
      "osm_id": 0,
      "lat": 60.43765015,
      "lon": 22.2378436,
      "tags": {
        "amenity": "kindergarten",
        "name": "L'hexagone"
      }
    },
    {
      "id": "osmp/5911",
      "type": "way",
      "osm_id": 0,
      "lat": 60.44248173333334,
      "lon": 22.238694233333334,
      "tags": {
        "amenity": "kindergarten",
        "name": "Tallimäenkentän päiväkoti"
      }
    },
    {
      "id": "osmp/5912",
      "type": "way",
      "osm_id": 0,
      "lat": 60.44644454999999,
      "lon": 22.271788238461536,
      "tags": {
        "amenity": "school",
        "name": "Turun suomenkielinen työväenopisto"
      }
    },
    {
      "id": "osmp/5913",
      "type": "way",
      "osm_id": 0,
      "lat": 60.44610101052631,
      "lon": 22.272247468421053,
      "tags": {
        "amenity": "kindergarten",
        "name": "Kaskenmäen päiväkoti"
      }
    },
    {
      "id": "osmp/5914",
      "type": "way",
      "osm_id": 0,
      "lat": 60.48317002857142,
      "lon": 22.039424271428576,
      "tags": {
        "amenity": "kindergarten",
        "name": "Taimon päiväkoti"
      }
    },
    {
      "id": "osmp/5915",
      "type": "way",
      "osm_id": 0,
      "lat": 60.501441375,
      "lon": 22.4530246625,
      "tags": {
        "amenity": "school",
        "name": "Novida, Liedon toimipaikka"
      }
    },
    {
      "id": "osmp/5916",
      "type": "way",
      "osm_id": 0,
      "lat": 60.50096140666667,
      "lon": 22.45031112666666,
      "tags": {
        "amenity": "school",
        "name": "Liedon lukio"
      }
    },
    {
      "id": "osmp/5917",
      "type": "way",
      "osm_id": 0,
      "lat": 60.5392972875,
      "lon": 22.5932021375,
      "tags": {
        "amenity": "school",
        "name": "Yliskulman koulu"
      }
    },
    {
      "id": "osmp/5918",
      "type": "way",
      "osm_id": 0,
      "lat": 60.46850528461538,
      "lon": 22.359817323076925,
      "tags": {
        "amenity": "school",
        "name": "Pompo"
      }
    },
    {
      "id": "osmp/5919",
      "type": "way",
      "osm_id": 0,
      "lat": 60.42366316363637,
      "lon": 22.260469536363633,
      "tags": {
        "amenity": "school",
        "name": "Vähä-Heikkilän koulu, Uittamon yksikkö"
      }
    },
    {
      "id": "osmp/5920",
      "type": "way",
      "osm_id": 0,
      "lat": 60.46140490526316,
      "lon": 22.246559836842103,
      "tags": {
        "amenity": "childcare",
        "operator": "Mukulax Oy",
        "name": "Mukulax Kähäri"
      }
    },
    {
      "id": "osmp/5921",
      "type": "way",
      "osm_id": 0,
      "lat": 60.45557530588235,
      "lon": 22.271180805882352,
      "tags": {
        "amenity": "school",
        "operator": "Turun ammatti-instituutti",
        "name": "Turun ammatti-instituutti, Aninkaisten koulutalo"
      }
    },
    {
      "id": "osmp/5922",
      "type": "way",
      "osm_id": 0,
      "lat": 60.47288781666668,
      "lon": 22.236917383333335,
      "tags": {
        "amenity": "kindergarten",
        "name": "Taoskujan päivähoitoyksikkö"
      }
    },
    {
      "id": "osmp/5923",
      "type": "way",
      "osm_id": 0,
      "lat": 60.532647099999984,
      "lon": 22.300254072727274,
      "tags": {
        "amenity": "childcare"
      }
    },
    {
      "id": "osmp/5924",
      "type": "way",
      "osm_id": 0,
      "lat": 60.45533657142857,
      "lon": 22.17135997142857,
      "tags": {
        "amenity": "kindergarten",
        "operator": "Turun kaupunki",
        "name": "Hyrköistentien päiväkoti"
      }
    },
    {
      "id": "osmp/5926",
      "type": "way",
      "osm_id": 0,
      "lat": 60.56863857142857,
      "lon": 22.106190071428575,
      "tags": {
        "amenity": "school",
        "name": "Kurittulan koulu"
      }
    },
    {
      "id": "osmp/5929",
      "type": "way",
      "osm_id": 0,
      "lat": 60.496727975,
      "lon": 22.534433108333335,
      "tags": {
        "amenity": "school",
        "name": "Saukonojan koulu"
      }
    },
    {
      "id": "osmp/5930",
      "type": "way",
      "osm_id": 0,
      "lat": 60.47938062941177,
      "lon": 22.236484923529414,
      "tags": {
        "amenity": "kindergarten",
        "operator": "Turun kaupunki",
        "name": "Karrinkadun päiväkoti"
      }
    },
    {
      "id": "osmp/5931",
      "type": "way",
      "osm_id": 0,
      "lat": 60.489337971428576,
      "lon": 22.261449942857144,
      "tags": {
        "amenity": "kindergarten",
        "operator": "Turun kaupunki",
        "name": "Munterinkadun päiväkoti, Piiparinpolku 18"
      }
    },
    {
      "id": "osmp/5932",
      "type": "way",
      "osm_id": 0,
      "lat": 60.32637790526316,
      "lon": 22.39740593157895,
      "tags": {
        "amenity": "school",
        "religion": "none",
        "operator": "municipality",
        "name": "Nilsbyn koulu"
      }
    },
    {
      "id": "osmp/5933",
      "type": "way",
      "osm_id": 0,
      "lat": 60.4568896,
      "lon": 22.324956779999997,
      "tags": {
        "amenity": "school",
        "name": "Hannunniitun koulu, Hannunniitun yksikkö"
      }
    },
    {
      "id": "osmp/5936",
      "type": "way",
      "osm_id": 0,
      "lat": 60.4484912,
      "lon": 22.29740238,
      "tags": {
        "amenity": "college",
        "operator": "Turun ammattikorkeakoulu",
        "name": "EduCity"
      }
    },
    {
      "id": "osmp/5937",
      "type": "way",
      "osm_id": 0,
      "lat": 60.418974528571425,
      "lon": 22.462712642857145,
      "tags": {
        "amenity": "childcare",
        "name": "Päiväkoti Pilke"
      }
    },
    {
      "id": "osmp/5942",
      "type": "way",
      "osm_id": 0,
      "lat": 60.453413160000004,
      "lon": 22.012560009999994,
      "tags": {
        "amenity": "kindergarten"
      }
    },
    {
      "id": "osmp/5944",
      "type": "way",
      "osm_id": 0,
      "lat": 60.462292000000005,
      "lon": 22.201336712499998,
      "tags": {
        "amenity": "kindergarten",
        "name": "Rahjekadun päiväkoti"
      }
    },
    {
      "id": "osmp/5945",
      "type": "way",
      "osm_id": 0,
      "lat": 60.428697184848495,
      "lon": 22.527956896969698,
      "tags": {
        "amenity": "school",
        "name": "Piikkiön yhtenäiskoulu"
      }
    },
    {
      "id": "osmp/5950",
      "type": "way",
      "osm_id": 0,
      "lat": 59.89357274,
      "lon": 22.52278254,
      "tags": {
        "amenity": "library",
        "operator": "Blanka",
        "name": "Hiittisten kirjasto"
      }
    },
    {
      "id": "osmp/5954",
      "type": "way",
      "osm_id": 0,
      "lat": 60.46077001428572,
      "lon": 22.733077971428568,
      "tags": {
        "amenity": "school",
        "name": "Hanhijoen koulu"
      }
    },
    {
      "id": "osmp/5955",
      "type": "way",
      "osm_id": 0,
      "lat": 60.46242627391305,
      "lon": 22.68015440869565,
      "tags": {
        "amenity": "school",
        "name": "Paimion lukio"
      }
    },
    {
      "id": "osmp/5956",
      "type": "way",
      "osm_id": 0,
      "lat": 60.4616336111111,
      "lon": 22.679846877777777,
      "tags": {
        "amenity": "school",
        "name": "Jokelan koulu"
      }
    },
    {
      "id": "osmp/5959",
      "type": "way",
      "osm_id": 0,
      "lat": 60.46386568571428,
      "lon": 22.73791607142857,
      "tags": {
        "amenity": "kindergarten"
      }
    },
    {
      "id": "osmp/5961",
      "type": "way",
      "osm_id": 0,
      "lat": 60.56292004444444,
      "lon": 22.446863066666666,
      "tags": {
        "amenity": "kindergarten",
        "name": "Tammentuvan päiväkoti"
      }
    },
    {
      "id": "osmp/5962",
      "type": "way",
      "osm_id": 0,
      "lat": 60.59479349230769,
      "lon": 22.381743992307694,
      "tags": {
        "amenity": "kindergarten"
      }
    },
    {
      "id": "osmp/5963",
      "type": "way",
      "osm_id": 0,
      "lat": 60.5370264,
      "lon": 22.0461319,
      "tags": {
        "amenity": "kindergarten",
        "name": "Seikelän päiväkoti"
      }
    },
    {
      "id": "osmp/5965",
      "type": "way",
      "osm_id": 0,
      "lat": 60.44336424615384,
      "lon": 22.37672173076923,
      "tags": {
        "amenity": "kindergarten",
        "operator": "Verkanappulat",
        "name": "Nappulalaakso"
      }
    },
    {
      "id": "osmp/5966",
      "type": "way",
      "osm_id": 0,
      "lat": 60.44611268888889,
      "lon": 22.245027911111112,
      "tags": {
        "amenity": "kindergarten",
        "name": "Daghem Port Arthur"
      }
    },
    {
      "id": "osmp/5969",
      "type": "way",
      "osm_id": 0,
      "lat": 60.418976055555554,
      "lon": 22.46289585555556,
      "tags": {
        "amenity": "kindergarten"
      }
    },
    {
      "id": "osmp/5970",
      "type": "way",
      "osm_id": 0,
      "lat": 60.584864366666665,
      "lon": 22.889817199999996,
      "tags": {
        "amenity": "library",
        "name": "Marttilan kirjasto"
      }
    },
    {
      "id": "osmp/5975",
      "type": "way",
      "osm_id": 0,
      "lat": 60.504928846153845,
      "lon": 22.76977740769231,
      "tags": {
        "amenity": "school",
        "name": "Ammattiopisto Livia, Paimion toimipaikka"
      }
    },
    {
      "id": "osmp/5979",
      "type": "way",
      "osm_id": 0,
      "lat": 60.11108923636363,
      "lon": 22.943100781818178,
      "tags": {
        "amenity": "school",
        "name": "Särkisalon koulu"
      }
    },
    {
      "id": "osmp/5980",
      "type": "way",
      "osm_id": 0,
      "lat": 60.59694752857143,
      "lon": 22.089637,
      "tags": {
        "amenity": "kindergarten"
      }
    },
    {
      "id": "osmp/5982",
      "type": "way",
      "osm_id": 0,
      "lat": 60.34570397999999,
      "lon": 22.693817260000003,
      "tags": {
        "amenity": "school"
      }
    },